crs,name,latitude,longitude,region,hub
ABW,Abbey Wood,51.490719,0.120343,London,0
ABE,Aber,51.575363,-3.23089,Wales,0
ACY,Abercynon,51.64262,-3.329549,Wales,0
ABA,Aberdare,51.715019,-3.44313,Wales,0
ABD,Aberdeen,57.143127,-2.097464,Scotland,1
AUR,Aberdour,56.054646,-3.300575,Scotland,0
AVY,Aberdovey,52.543934,-4.057118,Wales,0
ABH,Abererch,52.898567,-4.37423,Wales,0
AGV,Abergavenny,51.81665,-3.009679,Wales,0
AGL,Abergele & Pensarn,53.294758,-3.581343,Wales,0
AYW,Aberystwyth,52.414017,-4.081946,Wales,0
ACR,Accrington,53.753193,-2.370016,North West,0
AAT,Achanalt,57.609921,-4.914243,Scotland,0
ACN,Achnasheen,57.579205,-5.072421,Scotland,0
ACH,Achnashellach,57.482697,-5.333001,Scotland,0
ACK,Acklington,55.307129,-1.651816,North East,0
ACL,Acle,52.634647,1.543981,East of England,0
ACG,Acocks Green,52.449291,-1.81898,West Midlands,0
ACC,Acton Central,51.508717,-0.263601,London,0
AML,Acton Main Line,51.516865,-0.26762,London,0
ADD,Adderley Park,52.483505,-1.854184,West Midlands,0
ADW,Addiewell,55.843449,-3.60655,Scotland,0
ASN,Addlestone,51.372414,-0.48571,South East,0
ADM,Adisham,51.241352,1.199277,South East,0
ADC,Adlington (Cheshire),53.319542,-2.133571,North West,0
ADL,Adlington (Lancashire),53.612926,-2.603084,North West,0
AWK,Adwick,53.572994,-1.181465,Yorkshire and The Humber,0
AIG,Aigburth,53.364614,-2.927041,North West,0
ANS,Ainsdale,53.601818,-3.042691,North West,0
AIN,Aintree,53.473995,-2.956687,North West,0
AIR,Airbles,55.782504,-3.994447,Scotland,0
ADR,Airdrie,55.864029,-3.982952,Scotland,0
AYP,Albany Park,51.435745,0.126427,London,0
ALB,Albrighton,52.637917,-2.268913,West Midlands,0
ALD,Alderley Edge,53.303762,-2.236812,North West,0
AMT,Aldermaston,51.402047,-1.136972,South East,0
AHT,Aldershot,51.246151,-0.760657,South East,0
AGT,Aldrington,50.836601,-0.182151,South East,0
AAP,Alexandra Palace,51.598225,-0.120129,London,0
AXP,Alexandra Parade,55.863724,-4.211465,Scotland,0
ALX,Alexandria,55.98513,-4.577534,Scotland,0
ALF,Alfreton,53.100414,-1.369689,East Midlands,0
ALW,Allens West,54.524128,-1.363418,North East,0
ALO,Alloa,56.1179,-3.7872,Scotland,0
ASS,Alness,57.694477,-4.249743,Scotland,0
ALM,Alnmouth,55.392456,-1.636858,North East,0
ASG,Alsager,53.093054,-2.29861,North West,0
ALP,Althorpe,53.585262,-0.732558,Yorkshire and The Humber,0
ABC,Altnabreac,58.388439,-3.705279,Scotland,0
AON,Alton,51.151947,-0.967658,South East,0
ALT,Altrincham,53.3874,-2.347212,North West,0
ALV,Alvechurch,52.346607,-1.967854,West Midlands,0
AMB,Ambergate,53.060501,-1.4807,East Midlands,0
AMY,Amberley,50.896507,-0.542446,South East,0
AMR,Amersham,51.67439,-0.60613,South East,0
AMF,Ammanford,51.795933,-3.996783,Wales,0
ANC,Ancaster,52.987888,-0.535596,East Midlands,0
AND,Anderston,55.859924,-4.271969,Scotland,0
ADV,Andover,51.212048,-1.493167,South East,0
ANZ,Anerley,51.41163,-0.064348,London,0
ANG,Angmering,50.816704,-0.489559,South East,0
ANN,Annan,54.98386,-3.262603,Scotland,0
ANL,Anniesland,55.889553,-4.321684,Scotland,0
AFV,Ansdell & Fairhaven,53.741558,-2.993077,North West,0
APY,Apperley Bridge,53.84138,-1.703065,Yorkshire and The Humber,0
APP,Appleby,54.58032,-2.486692,North West,0
APD,Appledore (Kent),51.032623,0.816826,South East,0
APF,Appleford,51.639562,-1.242375,South East,0
APB,Appley Bridge,53.579029,-2.718906,North West,0
APS,Apsley,51.732712,-0.463568,East of England,0
ARB,Arbroath,56.559628,-2.588928,Scotland,0
ARD,Ardgay,57.881119,-4.362604,Scotland,0
AUI,Ardlui,56.302025,-4.721712,Scotland,0
ADS,Ardrossan Harbour,55.640854,-4.823461,Scotland,0
ASB,Ardrossan South Beach,55.640495,-4.799593,Scotland,0
ADN,Ardrossan Town,55.639313,-4.812212,Scotland,0
ADK,Ardwick,53.47134,-2.213893,North West,0
AGS,Argyle Street,55.855938,-4.244574,Scotland,0
ARG,Arisaig,56.912617,-5.839141,Scotland,0
ARL,Arlesey,52.025938,-0.266178,East of England,0
AWT,Armathwaite,54.809611,-2.77209,North West,0
ARN,Arnside,54.202114,-2.827783,North West,0
ARR,Arram,53.884567,-0.426833,Yorkshire and The Humber,0
ART,Arrochar & Tarbet,56.204021,-4.722822,Scotland,0
ARU,Arundel,50.848003,-0.546796,South East,0
AUW,Ascott-Under-Wychwood,51.867376,-1.564136,South East,0
ASH,Ash,51.249222,-0.711856,South East,0
AHV,Ash Vale,51.272709,-0.721247,South East,0
ABY,Ashburys,53.471761,-2.194991,North West,0
ASC,Ashchurch for Tewkesbury,51.997158,-2.10921,South West,0
ASF,Ashfield,55.889214,-4.2433,Scotland,0
AFK,Ashford International,51.14335294,0.875167251,South East,1
ASY,Ashley,53.355984,-2.341029,North West,0
AHD,Ashtead,51.317822,-0.308126,South East,0
AHN,Ashton-Under-Lyne,53.491264,-2.093415,North West,0
ANF,Ashurst New Forest,50.888865,-1.525097,South East,0
AWM,Ashwell & Morden,52.030586,-0.10934,East of England,0
ASK,Askam,54.189049,-3.204545,North West,0
ALK,Aslockton,52.951351,-0.898541,East Midlands,0
ASP,Aspatria,54.759338,-3.331752,North West,0
APG,Aspley Guise,52.020725,-0.631519,East of England,0
AST,Aston,52.505104,-1.871788,West Midlands,0
ATH,Atherstone,52.578949,-1.552808,West Midlands,0
ATN,Atherton,53.528817,-2.478683,North West,0
ATT,Attadale,57.394871,-5.456549,Scotland,0
ATB,Attenborough,52.906322,-1.231262,East Midlands,0
ATL,Attleborough,52.514214,1.022719,East of England,0
AUK,Auchinleck,55.47031,-4.295389,Scotland,0
AUD,Audley End,52.004398,0.20719,East of England,0
AUG,Aughton Park,53.55447,-2.895095,North West,0
AVM,Aviemore,57.18914,-3.828348,Scotland,0
AVF,Avoncliff,51.339596,-2.281342,South West,0
AVN,Avonmouth,51.500194,-2.699332,South West,0
AXM,Axminster,50.778976,-3.005613,South West,0
AYS,Aylesbury,51.813868,-0.815048,South East,0
AVP,Aylesbury Vale Parkway,51.8327,-0.8623,South East,0
AYL,Aylesford,51.301384,0.465964,South East,0
AYH,Aylesham,51.227185,1.209682,South East,0
AYR,Ayr,55.458248,-4.626878,Scotland,0
BAC,Bache,53.209312,-2.892386,North West,0
BAJ,Baglan,51.61549,-3.811182,Wales,0
BAG,Bagshot,51.364964,-0.688501,South East,0
BLD,Baildon,53.849682,-1.753717,Yorkshire and The Humber,0
BIO,Baillieston,55.844761,-4.11454,Scotland,0
BAB,Balcombe,51.05624,-0.137881,South East,0
BDK,Baldock,51.993156,-0.188106,East of England,0
BAL,Balham,51.443169,-0.152403,London,0
BSI,Balmossie,56.475548,-2.83764,Scotland,0
BMB,Bamber Bridge,53.726772,-2.660793,North West,0
BAM,Bamford,53.338985,-1.689078,East Midlands,0
BNV,Banavie,56.84338,-5.095477,Scotland,0
BAN,Banbury,52.060925,-1.327541,South East,0
BNG,Bangor (Gwynedd),53.222902,-4.135505,Wales,0
BAH,Bank Hall,53.437357,-2.987509,North West,0
BAD,Banstead,51.329922,-0.214384,South East,0
BSS,Barassie,55.5611,-4.651181,Scotland,0
BLL,Bardon Mill,54.974636,-2.349922,North East,0
BAR,Bare Lane,54.074473,-2.835331,North West,0
BGI,Bargeddie,55.851776,-4.071789,Scotland,0
BGD,Bargoed,51.692268,-3.229717,Wales,0
BKG,Barking,51.539982,0.080804,London,0
BMG,Barming,51.284904,0.479428,South East,0
BRM,Barmouth,52.72287,-4.056641,Wales,0
BNH,Barnehurst,51.464798,0.160885,London,0
BNI,Barnes Bridge,51.471676,-0.252051,London,0
BNS,Barnes,51.467014,-0.240711,London,0
BTB,Barnetby,53.574219,-0.409679,Yorkshire and The Humber,0
BAA,Barnham,50.831135,-0.639627,South East,0
BNL,Barnhill,55.877895,-4.223463,Scotland,0
BNY,Barnsley,53.553978,-1.477688,Yorkshire and The Humber,0
BNP,Barnstaple,51.073532,-4.064032,South West,0
BTG,Barnt Green,52.361328,-1.994098,West Midlands,0
BRR,Barrhead,55.804535,-4.396411,Scotland,0
BRL,Barrhill,55.097031,-4.781834,Scotland,0
BAV,Barrow Haven,53.697128,-0.391427,Yorkshire and The Humber,0
BIF,Barrow-In-Furness,54.118879,-3.22614,North West,0
BYD,Barry Docks,51.402393,-3.260749,Wales,0
BYI,Barry Island,51.392361,-3.273405,Wales,0
BYL,Barry Links,56.493206,-2.745444,Scotland,0
BRY,Barry,51.396729,-3.285023,Wales,0
BAU,Barton-On-Humber,53.688824,-0.443233,Yorkshire and The Humber,0
BSO,Basildon,51.568672,0.457309,East of England,0
BSK,Basingstoke,51.26804,-1.086896,South East,0
BBL,Bat & Ball,51.289703,0.194258,South East,0
BTH,Bath Spa,51.378059,-2.356302,South West,0
BHG,Bathgate,55.898678,-3.644019,Scotland,0
BTL,Batley,53.709129,-1.622734,Yorkshire and The Humber,0
BTT,Battersby,54.457687,-1.092945,Yorkshire and The Humber,0
BAK,Battersea Park,51.477272,-0.148151,London,0
BAT,Battle,50.91312,0.495169,South East,0
BLB,Battlesbridge,51.624805,0.565826,East of England,0
BAY,Bayford,51.758808,-0.096074,East of England,0
BCF,Beaconsfield,51.611141,-0.643644,South East,0
BER,Bearley,52.244252,-1.750259,West Midlands,0
BRN,Bearsden,55.917202,-4.332945,Scotland,0
BSD,Bearsted,51.275589,0.57786,South East,0
BSL,Beasdale,56.899624,-5.763864,Scotland,0
BEU,Beaulieu Road,50.854206,-1.505586,South East,0
BEL,Beauly,57.478,-4.4698,Scotland,0
BEB,Bebington,53.357651,-3.003659,North West,0
BCC,Beccles,52.458481,1.569547,East of England,0
BEC,Beckenham Hill,51.424767,-0.016497,London,0
BKJ,Beckenham Junction,51.411446,-0.027144,London,0
BSJ,Bedford St Johns,52.129299,-0.467348,East of England,0
BDM,Bedford,52.136175,-0.47945,East of England,0
BDH,Bedhampton,50.853638,-0.996989,South East,0
BMT,Bedminster,51.440037,-2.594184,South West,0
BEH,Bedworth,52.479133,-1.46749,West Midlands,0
BDW,Bedwyn,51.379715,-1.599077,South West,0
BEE,Beeston,52.920551,-1.207211,East Midlands,0
BKS,Bekesbourne,51.261051,1.136125,South East,0
BLV,Belle Vue,53.462181,-2.180809,North West,0
BLG,Bellgrove,55.857182,-4.22547,Scotland,0
BGM,Bellingham,51.433826,-0.020421,London,0
BLH,Bellshill,55.816605,-4.025222,Scotland,0
BLM,Belmont,51.344086,-0.199471,London,0
BLP,Belper,53.024555,-1.482622,East Midlands,0
BEG,Beltring,51.204651,0.403518,South East,0
BVD,Belvedere,51.491936,0.152088,London,0
BEM,Bempton,54.128296,-0.180389,Yorkshire and The Humber,0
BEY,Ben Rhydding,53.926167,-1.797429,Yorkshire and The Humber,0
BEF,Benfleet,51.543964,0.561273,East of England,0
BEN,Bentham,54.115791,-2.510918,Yorkshire and The Humber,0
BYK,Bentley (South Yorkshire),53.542865,-1.148788,Yorkshire and The Humber,0
BAS,Bere Alston,50.485535,-4.200418,South West,0
BFE,Bere Ferrers,50.450798,-4.181901,South West,0
BKM,Berkhamsted,51.763638,-0.562498,East of England,0
BKW,Berkswell,52.395851,-1.642845,West Midlands,0
BEP,Bermuda Park,52.5029,-1.4726,West Midlands,0
BYA,Berney Arms,52.589745,1.63043,East of England,0
BBW,Berry Brow,53.622368,-1.797371,Yorkshire and The Humber,0
BRS,Berrylands,51.39838,-0.282157,London,0
BRK,Berwick (Sussex),50.840569,0.164587,South East,0
BWK,Berwick-Upon-Tweed,55.774872,-2.01112,North East,0
BES,Bescar Lane,53.623531,-2.914703,North West,0
BSC,Bescot Stadium,52.562702,-1.991116,West Midlands,0
BTO,Betchworth,51.247993,-0.26771,South East,0
BET,Bethnal Green,51.524406,-0.059747,London,0
BEV,Beverley,53.842281,-0.423855,Yorkshire and The Humber,0
BEX,Bexhill,50.840679,0.475678,South East,0
BXY,Bexley,51.440742,0.148248,London,0
BXH,Bexleyheath,51.463493,0.133471,London,0
BCS,Bicester North,51.903401,-1.150517,South East,0
BIT,Bicester Village,51.893429,-1.148393,South East,0
BKL,Bickley,51.40033,0.044272,London,0
BID,Bidston,53.40913,-3.078589,North West,0
BIW,Biggleswade,52.085068,-0.260294,East of England,0
BBK,Bilbrook,52.623695,-2.186101,West Midlands,0
BIC,Billericay,51.628834,0.418656,East of England,0
BIL,Billingham,54.606327,-1.278525,North East,0
BIG,Billingshurst,51.014938,-0.450348,South East,0
BIN,Bingham,52.954536,-0.952044,East Midlands,0
BIY,Bingley,53.84803,-1.837327,Yorkshire and The Humber,0
BCG,Birchgrove,51.521687,-3.203502,Wales,0
BCH,Birchington-On-Sea,51.377956,1.300781,South East,0
BWD,Birchwood,53.41193,-2.52802,North West,0
BIK,Birkbeck,51.403847,-0.056218,London,0
BDL,Birkdale,53.633514,-3.014742,North West,0
BKC,Birkenhead Central,53.388244,-3.020897,North West,0
BKQ,Birkenhead Hamilton Square,53.39469,-3.01365,North West,0
BKN,Birkenhead North,53.404819,-3.057425,North West,0
BKP,Birkenhead Park,53.397417,-3.03927,North West,0
BHI,Birmingham International,52.450673,-1.725149,West Midlands,0
BMO,Birmingham Moor Street,52.479053,-1.892483,West Midlands,0
BHM,Birmingham New Street,52.478153,-1.898375,West Midlands,1
BSW,Birmingham Snow Hill,52.483555,-1.899833,West Midlands,0
BIA,Bishop Auckland,54.657482,-1.677545,North East,0
BBG,Bishopbriggs,55.903927,-4.224958,Scotland,0
BIS,Bishops Stortford,51.866692,0.16557,East of England,0
BTE,Bitterne,50.918343,-1.378279,South East,0
BBN,Blackburn,53.746513,-2.479135,North West,0
BKH,Blackheath,51.465706,0.008317,London,0
BHO,Blackhorse Road,51.586143,-0.04123,London,0
BPN,Blackpool North,53.822772,-3.049908,North West,0
BPB,Blackpool Pleasure Beach,53.788154,-3.053856,North West,0
BPS,Blackpool South,53.798611,-3.049081,North West,0
BKR,Blackridge,55.88368,-3.75047,Scotland,0
BLK,Blackrod,53.591522,-2.56954,North West,0
BAW,Blackwater,51.33176,-0.777023,South East,0
BFF,Blaenau Ffestiniog,52.996284,-3.944449,Wales,0
BLA,Blair Atholl,56.765614,-3.85025,Scotland,0
BAI,Blairhill,55.866653,-4.04221,Scotland,0
BKT,Blake Street,52.605054,-1.844888,West Midlands,0
BKD,Blakedown,52.406147,-2.176365,West Midlands,0
BLT,Blantyre,55.7976,-4.086466,Scotland,0
BLO,Blaydon,54.965813,-1.712578,North East,0
BSB,Bleasby,53.041649,-0.942469,East Midlands,0
BLY,Bletchley,51.995339,-0.736368,South East,0
BWN,Bloxwich North,52.625637,-2.019173,West Midlands,0
BLX,Bloxwich,52.61853,-2.011783,West Midlands,0
BLN,Blundellsands & Crosby,53.487675,-3.039889,North West,0
BYB,Blythe Bridge,52.968124,-2.066966,West Midlands,0
BOD,Bodmin Parkway,50.445822,-4.663026,South West,0
BOR,Bodorgan,53.204292,-4.418067,Wales,0
BOG,Bognor Regis,50.786594,-0.676384,South East,0
BGS,Bogston,55.937267,-4.713676,Scotland,0
BON,Bolton,53.573983,-2.425661,North West,0
BKA,Bookham,51.288334,-0.385224,South East,0
BOC,Bootle (Cumbria),54.290249,-3.394818,North West,0
BNW,Bootle New Strand,53.453357,-2.994676,North West,0
BOT,Bootle Oriel Road,53.446559,-2.995791,North West,0
BBS,Bordesley,52.471844,-1.877771,West Midlands,0
BRG,Borough Green & Wrotham,51.29295,0.306296,South East,0
BRH,Borth,52.491001,-4.050236,Wales,0
BOH,Bosham,50.843262,-0.846655,South East,0
BSN,Boston,52.978802,-0.030949,East Midlands,0
BOE,Botley,50.916748,-1.258809,South East,0
BTF,Bottesford,52.944962,-0.796012,East Midlands,0
BNE,Bourne End,51.576538,-0.711287,South East,0
BMH,Bournemouth,50.727478,-1.863955,South West,0
BRV,Bournville,52.426937,-1.926434,West Midlands,0
BWB,Bow Brickhill,52.003475,-0.696154,South East,0
BOW,Bow Street,52.439914,-4.03036,Wales,0
BOP,Bowes Park,51.607216,-0.119761,London,0
BWG,Bowling,55.931129,-4.493879,Scotland,0
BXW,Box Hill & Westhumble,51.253376,-0.329128,South East,0
BCE,Bracknell,51.413319,-0.751833,South East,0
BDQ,Bradford Forster Square,53.79575,-1.752505,Yorkshire and The Humber,0
BDI,Bradford Interchange,53.791196,-1.749701,Yorkshire and The Humber,0
BOA,Bradford-On-Avon,51.345058,-2.252669,South West,0
BDN,Brading,50.678509,-1.13801,South East,0
BTR,Braintree,51.874989,0.558261,East of England,0
BTP,Braintree Freeport,51.869316,0.568258,East of England,0
BML,Bramhall,53.359959,-2.162249,North West,0
BMP,Brampton (Cumbria),54.932655,-2.703814,North West,0
BRP,Brampton (Suffolk),52.395397,1.543871,East of England,0
BCN,Branchton,55.940647,-4.803598,Scotland,0
BND,Brandon,52.454479,0.624116,East of England,0
BSM,Branksome,50.727528,-1.919211,South West,0
BYS,Braystones,54.43956,-3.543406,North West,0
BDY,Bredbury,53.422939,-2.109823,North West,0
BRC,Breich,55.827351,-3.668147,Scotland,0
BFD,Brentford,51.487804,-0.309048,London,0
BRE,Brentwood,51.61322,0.30083,East of England,0
BWO,Bricket Wood,51.705223,-0.358846,East of England,0
BGN,Bridgend,51.506481,-3.576296,Wales,0
BDG,Bridgeton,55.849968,-4.226668,Scotland,0
BWT,Bridgwater,51.128025,-2.99031,South West,0
BDT,Bridlington,54.084545,-0.200659,Yorkshire and The Humber,0
BRF,Brierfield,53.824535,-2.236959,North West,0
BGG,Brigg,53.549137,-0.486094,Yorkshire and The Humber,0
BGH,Brighouse,53.698734,-1.781855,Yorkshire and The Humber,0
BTN,Brighton,50.829659,-0.141234,South East,1
BMD,Brimsdown,51.655224,-0.031022,London,0
BNT,Brinnington,53.431881,-2.134097,North West,0
BPW,Bristol Parkway,51.514061,-2.53461,South West,0
BRI,Bristol Temple Meads,51.449093,-2.581349,South West,1
BHD,Brithdir,51.710266,-3.228765,Wales,0
BNF,Briton Ferry,51.637852,-3.8193,Wales,0
BRX,Brixton,51.463245,-0.114164,London,0
BGE,Broad Green,53.40654,-2.893267,North West,0
BDB,Broadbottom,53.440968,-2.01653,North West,0
BSR,Broadstairs,51.360653,1.43317,South East,0
BCU,Brockenhurst,50.816708,-1.574112,South East,0
BHS,Brockholes,53.597149,-1.770299,Yorkshire and The Humber,0
BCY,Brockley,51.464684,-0.037797,London,0
BMR,Bromborough Rake,53.329899,-2.989644,North West,0
BOM,Bromborough,53.322146,-2.987058,North West,0
BMN,Bromley North,51.408894,0.017325,London,0
BMS,Bromley South,51.399887,0.018374,London,0
BMV,Bromsgrove,52.322662,-2.048379,West Midlands,0
BSP,Brondesbury Park,51.540896,-0.209955,London,0
BSY,Brondesbury,51.545574,-0.203063,London,0
BPK,Brookmans Park,51.720955,-0.204811,East of England,0
BKO,Brookwood,51.303215,-0.635753,South East,0
BME,Broome,52.422745,-2.88524,West Midlands,0
BMF,Broomfleet,53.740131,-0.673328,Yorkshire and The Humber,0
BRA,Brora,58.012657,-3.853251,Scotland,0
BUH,Brough,53.726452,-0.578255,Yorkshire and The Humber,0
BYF,Broughty Ferry,56.467213,-2.873153,Scotland,0
BXB,Broxbourne,51.745712,-0.011157,East of England,0
BCV,Bruce Grove,51.592918,-0.06982,London,0
BGA,Brundall Gardens,52.623035,1.418896,East of England,0
BDA,Brundall,52.619747,1.439316,East of England,0
BSU,Brunstane,55.94143,-3.10064,Scotland,0
BRW,Brunswick,53.382153,-2.975665,North West,0
BRU,Bruton,51.111584,-2.447103,South West,0
BYN,Bryn,53.499893,-2.647233,North West,0
BUC,Buckenham,52.59816,1.47013,East of England,0
BCK,Buckley,53.163021,-3.055948,Wales,0
BUK,Bucknell,52.357525,-2.948551,West Midlands,0
BSV,Buckshaw Parkway,53.67283,-2.66447,North West,0
BGL,Bugle,50.399979,-4.791736,South West,0
BHR,Builth Road,52.169289,-3.427068,Wales,0
BLW,Bulwell,52.999625,-1.196115,East Midlands,0
BUE,Bures,51.97094,0.769021,East of England,0
BUG,Burgess Hill,50.953552,-0.127749,South East,0
BUY,Burley Park,53.808743,-1.576277,Yorkshire and The Humber,0
BUW,Burley-In-Wharfedale,53.908112,-1.753363,Yorkshire and The Humber,0
BNA,Burnage,53.421205,-2.215896,North West,0
BUU,Burnham-On-Crouch,51.633526,0.813459,East of England,0
BUB,Burnley Barracks,53.791237,-2.258014,North West,0
BNC,Burnley Central,53.793776,-2.244644,North West,0
BYM,Burnley Manchester Road,53.784962,-2.248883,North West,0
BTS,Burntisland,56.057133,-3.233214,Scotland,0
BCB,Burscough Bridge,53.60519,-2.841758,North West,0
BCJ,Burscough Junction,53.598011,-2.840105,North West,0
BUO,Bursledon,50.882858,-1.304835,South East,0
BUJ,Burton Joyce,52.984047,-1.040698,East Midlands,0
BUT,Burton-On-Trent,52.805798,-1.64246,West Midlands,0
BSE,Bury St Edmunds,52.253727,0.713355,East of England,0
BUS,Busby,55.780109,-4.262551,Scotland,0
BHK,Bush Hill Park,51.642365,-0.06916,London,0
BSH,Bushey,51.644669,-0.384806,East of England,0
BUL,Butlers Lane,52.592376,-1.838163,West Midlands,0
BXD,Buxted,50.990475,0.131651,South East,0
BUX,Buxton,53.26058,-1.913086,East Midlands,0
BFN,Byfleet & New Haw,51.349869,-0.480714,South East,0
BYE,Bynea,51.67276,-4.098396,Wales,0
CAD,Cadoxton,51.412422,-3.248087,Wales,0
CGW,Caergwrle,53.107922,-3.033069,Wales,0
CPH,Caerphilly,51.571903,-3.217805,Wales,0
CWS,Caersws,52.516262,-3.43387,Wales,0
CAC,Caldercruix,55.88791,-3.88978,Scotland,0
CDT,Caldicot,51.58474,-2.760598,Wales,0
CIR,Caledonian Road & Barnsbury,51.543301,-0.115177,London,0
CSK,Calstock,50.497487,-4.208665,South West,0
CDU,Cam & Dursley,51.71701,-2.366194,South West,0
CAM,Camberley,51.335911,-0.745328,South East,0
CBN,Camborne,50.210392,-5.297921,South West,0
CBG,Cambridge,52.194519,0.137584,East of England,0
CBH,Cambridge Heath,51.53157,-0.057997,London,0
CMB,Cambridge North,52.223333,0.157778,East of England,0
CBL,Cambuslang,55.819458,-4.173839,Scotland,0
CMD,Camden Road,51.541889,-0.139764,London,0
CMO,Camelon,56.006775,-3.817015,Scotland,0
ZCW,Canada Water,51.49823,-0.05076,London,0
CNL,Canley,52.399418,-1.547232,West Midlands,0
CAO,Cannock,52.686768,-2.022158,West Midlands,0
CNN,Canonbury,51.548747,-0.091614,London,0
CBE,Canterbury East,51.275261,1.075434,South East,0
CBW,Canterbury West,51.284279,1.074608,South East,0
CNY,Cantley,52.578907,1.512899,East of England,0
CPU,Capenhurst,53.260155,-2.942908,North West,0
CBB,Carbis Bay,50.19746,-5.463815,South West,0
CDD,Cardenden,56.141308,-3.261651,Scotland,0
CDB,Cardiff Bay,51.466324,-3.166049,Wales,0
CDF,Cardiff Central,51.475193,-3.177794,Wales,1
CDQ,Cardiff Queen Street,51.482464,-3.170782,Wales,0
CDO,Cardonald,55.853252,-4.340297,Scotland,0
CDR,Cardross,55.960163,-4.652782,Scotland,0
CRF,Carfin,55.806938,-3.956112,Scotland,0
CAR,Carlisle,54.890675,-2.933833,North West,1
CTO,Carlton,52.964573,-1.078357,East Midlands,0
CLU,Carluke,55.730408,-3.848761,Scotland,0
CMN,Carmarthen,51.853233,-4.305732,Wales,0
CML,Carmyle,55.834053,-4.161873,Scotland,0
CNF,Carnforth,54.129688,-2.771244,North West,0
CAN,Carnoustie,56.500618,-2.7066,Scotland,0
CAY,Carntyne,55.854412,-4.17898,Scotland,0
CPK,Carpenders Park,51.627885,-0.385578,East of England,0
CAG,Carrbridge,57.279873,-3.829541,Scotland,0
CSH,Carshalton,51.367859,-0.16693,London,0
CSB,Carshalton Beeches,51.357117,-0.17023,London,0
CRS,Carstairs,55.69075,-3.668696,Scotland,0
CDY,Cartsdyke,55.942261,-4.731633,Scotland,0
CBP,Castle Bar Park,51.522865,-0.331575,London,0
CLC,Castle Cary,51.099583,-2.522683,South West,0
CFD,Castleford,53.724171,-1.355852,Yorkshire and The Humber,0
CSM,Castleton Moor,54.467297,-0.947707,Yorkshire and The Humber,0
CAT,Caterham,51.282803,-0.078539,South East,0
CFB,Catford Bridge,51.444725,-0.027142,London,0
CTF,Catford,51.444706,-0.025701,London,0
CYS,Cathays,51.488678,-3.178149,Wales,0
CCT,Cathcart,55.817879,-4.261552,Scotland,0
CTL,Cattal,53.997515,-1.319808,Yorkshire and The Humber,0
CAU,Causeland,50.405525,-4.466937,South West,0
CYB,Cefn-Y-Bedd,53.098511,-3.031972,Wales,0
CTH,Chadwell Heath,51.567905,0.128263,London,0
CFO,Chalfont & Latimer,51.66835,-0.560646,South East,0
CHW,Chalkwell,51.53883,0.6706,East of England,0
CFR,Chandlers Ford,50.983,-1.3845,South East,0
CEF,Chapel-En-Le-Frith,53.312405,-1.918915,East Midlands,0
CWC,Chappel & Wakes Colne,51.925312,0.758944,East of England,0
CHC,Charing Cross (Glasgow),55.865345,-4.270689,Scotland,0
CBY,Charlbury,51.872929,-1.490133,South East,0
CTN,Charlton,51.486904,0.030852,London,0
CRT,Chartham,51.256958,1.018303,South East,0
CSR,Chassen Road,53.44605,-2.368171,North West,0
CTE,Chatelherault,55.76521,-4.00466,Scotland,0
CTM,Chatham,51.381161,0.520559,South East,0
CHT,Chathill,55.536404,-1.706846,North East,0
CHU,Cheadle Hulme,53.375956,-2.188125,North West,0
CHE,Cheam,51.35601,-0.2148,London,0
CED,Cheddington,51.857908,-0.662168,South East,0
CHM,Chelmsford,51.736595,0.469316,East of England,0
CLD,Chelsfield,51.35603,0.108373,London,0
CNM,Cheltenham Spa,51.896465,-2.100245,South West,0
CPW,Chepstow,51.640137,-2.67193,Wales,0
CYT,Cherry Tree,53.732868,-2.518401,North West,0
CHY,Chertsey,51.387108,-0.509667,South East,0
CHN,Cheshunt,51.702747,-0.023171,East of England,0
CSN,Chessington North,51.364483,-0.300661,London,0
CSS,Chessington South,51.356491,-0.308144,London,0
CTR,Chester,53.196815,-2.880152,North West,0
CRD,Chester Road,52.535575,-1.832582,West Midlands,0
CHD,Chesterfield,53.238209,-1.42011,East Midlands,0
CLS,Chester-Le-Street,54.854885,-1.577847,North East,0
CSW,Chestfield & Swalecliffe,51.360004,1.068182,South East,0
CNO,Chetnole,50.866428,-2.574072,South West,0
CCH,Chichester,50.831821,-0.783032,South East,0
CIL,Chilham,51.244549,0.975937,South East,0
CHL,Chilworth,51.21553,-0.523795,South East,0
CHI,Chingford,51.63385,0.009955,London,0
CLY,Chinley,53.340275,-1.9444,East Midlands,0
CPM,Chippenham,51.462162,-2.115123,South West,0
CHP,Chipstead,51.309444,-0.169259,South East,0
CRK,Chirk,52.932793,-3.066708,Wales,0
CIT,Chislehurst,51.405506,0.057437,London,0
CHK,Chiswick,51.4809,-0.267538,London,0
CHO,Cholsey,51.570135,-1.157942,South East,0
CRL,Chorley,53.652428,-2.626693,North West,0
CLW,Chorleywood,51.654188,-0.51846,East of England,0
CHR,Christchurch,50.738148,-1.784566,South West,0
CHH,Christs Hospital,51.050629,-0.363538,South East,0
CTW,Church & Oswaldtwistle,53.750431,-2.391216,North West,0
CHF,Church Fenton,53.827671,-1.226652,Yorkshire and The Humber,0
CTT,Church Stretton,52.536606,-2.803485,West Midlands,0
CIM,Cilmeri,52.150936,-3.45719,Wales,0
CTK,City Thameslink,51.514336,-0.103412,London,1
CLA,Clandon,51.263832,-0.503622,South East,0
CLP,Clapham High Street,51.46534,-0.1328,London,0
CLJ,Clapham Junction,51.464134,-0.170281,London,0
CPT,Clapton,51.56213,-0.056685,London,0
CLR,Clarbeston Road,51.852207,-4.88221,Wales,0
CKS,Clarkston,55.789753,-4.275865,Scotland,0
CLV,Claverdon,52.276424,-1.696566,West Midlands,0
CLG,Claygate,51.360664,-0.348207,South East,0
CLE,Cleethorpes,53.56316,-0.029584,Yorkshire and The Humber,0
CEA,Cleland,55.804073,-3.909695,Scotland,0
CFN,Clifton Down,51.46423,-2.611761,South West,0
CLH,Clitheroe,53.87345,-2.394365,North West,0
CLK,Clock House,51.408096,-0.041668,London,0
CUW,Clunderwen,51.8405,-4.731915,Wales,0
CYK,Clydebank,55.900562,-4.403927,Scotland,0
CBC,Coatbridge Central,55.863213,-4.032443,Scotland,0
CBS,Coatbridge Sunnyside,55.866886,-4.027847,Scotland,0
COA,Coatdyke,55.864567,-4.005343,Scotland,0
CSL,Codsall,52.627262,-2.200891,West Midlands,0
CGN,Cogan,51.445396,-3.189974,Wales,0
COL,Colchester,51.900478,0.894085,East of England,0
CET,Colchester Town,51.886505,0.904055,East of England,0
CEH,Coleshill Parkway,52.5164,-1.7081,West Midlands,0
CLM,Collingham,53.144047,-0.748588,East Midlands,0
CLL,Collington,50.839272,0.457142,South East,0
CNE,Colne,53.85478,-2.181087,North West,0
CWL,Colwall,52.080284,-2.357489,West Midlands,0
CWB,Colwyn Bay,53.296349,-3.725462,Wales,0
COM,Commondale,54.481018,-0.97514,Yorkshire and The Humber,0
CNG,Congleton,53.157637,-2.192754,North West,0
CNS,Conisbrough,53.48885,-1.234333,Yorkshire and The Humber,0
CON,Connel Ferry,56.451981,-5.384973,Scotland,0
CBD,Conon Bridge,57.5617,-4.4404,Scotland,0
CEY,Cononley,53.917351,-2.010631,Yorkshire and The Humber,0
CNP,Conway Park,53.386219,-3.026886,North West,0
CNW,Conwy,53.280093,-3.83046,Wales,0
COB,Cooden Beach,50.83271,0.426969,South East,0
COO,Cookham,51.556873,-0.721948,South East,0
CBR,Cooksbridge,50.903938,-0.010272,South East,0
COP,Copplestone,50.814228,-3.751624,South West,0
CRB,Corbridge,54.966152,-2.017141,North East,0
COR,Corby,52.489196,-0.687944,East Midlands,0
CFC,Corfe Castle,50.6383,-2.0551,South West,0
CKH,Corkerhill,55.836494,-4.323322,Scotland,0
CKL,Corkickle,54.541657,-3.582155,North West,0
CPA,Corpach,56.842724,-5.121662,Scotland,0
CRR,Corrour,56.760181,-4.690966,Scotland,0
COY,Coryton,51.520512,-3.230858,Wales,0
CSY,Coseley,52.545738,-2.086051,West Midlands,0
COS,Cosford,52.645031,-2.301479,West Midlands,0
CSA,Cosham,50.841644,-1.068259,South East,0
CGM,Cottingham,53.781826,-0.406402,Yorkshire and The Humber,0
COT,Cottingley,53.767437,-1.588832,Yorkshire and The Humber,0
CDS,Coulsdon South,51.315231,-0.13746,London,0
CDN,Coulsdon Town,51.32243,-0.13429,London,0
COV,Coventry,52.400787,-1.513466,West Midlands,0
CAA,Coventry Arena,52.447032,-1.494559,West Midlands,0
COW,Cowdenbeath,56.111679,-3.344314,Scotland,0
CRA,Cradley Heath,52.469177,-2.08976,West Midlands,0
CGD,Craigendoran,55.99485,-4.711291,Scotland,0
CRM,Cramlington,55.088604,-1.598887,North East,0
CBK,Cranbrook (Devon),50.7501,-3.4206,South West,0
CRV,Craven Arms,52.441975,-2.837077,West Midlands,0
CRW,Crawley,51.111874,-0.187083,South East,0
CRY,Crayford,51.448273,0.178826,London,0
CDI,Crediton,50.783375,-3.646912,South West,0
CSG,Cressington,53.3588,-2.91172,North West,0
CRE,Crewe,53.089607,-2.432987,North West,0
CKN,Crewkerne,50.873337,-2.778815,South West,0
CWH,Crews Hill,51.684334,-0.106441,London,0
CNR,Crianlarich,56.389652,-4.617778,Scotland,0
CCC,Criccieth,52.918312,-4.236972,Wales,0
CRI,Cricklewood,51.559227,-0.214071,London,0
CFF,Croftfoot,55.818455,-4.229643,Scotland,0
CFT,Crofton Park,51.454777,-0.03678,London,0
CMR,Cromer,52.930595,1.292778,East of England,0
CMF,Cromford,53.112915,-1.548788,East Midlands,0
CKT,Crookston,55.84388,-4.36049,Scotland,0
CRG,Cross Gates,53.804638,-1.451798,Yorkshire and The Humber,0
CFL,Crossflatts,53.858829,-1.844886,Yorkshire and The Humber,0
COI,Crosshill,55.833225,-4.257648,Scotland,0
CKY,Crosskeys,51.621,-3.1261,Wales,0
CMY,Crossmyloof,55.833626,-4.284813,Scotland,0
CSO,Croston,53.66756,-2.777717,North West,0
CRH,Crouch Hill,51.571205,-0.116907,London,0
COH,Crowborough,51.046085,0.188422,South East,0
CWU,Crowhurst,50.888702,0.500984,South East,0
CWE,Crowle,53.589725,-0.817042,Yorkshire and The Humber,0
CRN,Crowthorne,51.366356,-0.819194,South East,0
CRO,Croy,55.955734,-4.035697,Scotland,0
CYP,Crystal Palace,51.417603,-0.072899,London,0
CUD,Cuddington,53.23991,-2.599329,North West,0
CUF,Cuffley,51.708675,-0.109761,East of England,0
CUM,Culham,51.653773,-1.236445,South East,0
CUA,Culrain,57.919842,-4.405676,Scotland,0
CUB,Cumbernauld,55.941326,-3.982089,Scotland,0
CUP,Cupar,56.317043,-3.008772,Scotland,0
CUH,Curriehill,55.901703,-3.317849,Scotland,0
CUX,Cuxton,51.374298,0.462693,South East,0
CMH,Cwmbach,51.701885,-3.413774,Wales,0
CWM,Cwmbran,51.656544,-3.016233,Wales,0
CYN,Cynghordy,52.051689,-3.747095,Wales,0
DDK,Dagenham Dock,51.526237,0.14505,London,0
DSY,Daisy Hill,53.539389,-2.516212,North West,0
DAG,Dalgety Bay,56.044178,-3.354809,Scotland,0
DAL,Dalmally,56.400272,-4.9832,Scotland,0
DAK,Dalmarnock,55.839371,-4.21647,Scotland,0
DAM,Dalmeny,55.986362,-3.381645,Scotland,0
DMR,Dalmuir,55.911793,-4.427038,Scotland,0
DLR,Dalreoch,55.947365,-4.578226,Scotland,0
DLY,Dalry,55.705395,-4.711899,Scotland,0
DLS,Dalston (Cumbria),54.846203,-2.988866,North West,0
DLJ,Dalston Junction,51.546139,-0.07544,London,0
DLK,Dalston Kingsland,51.548035,-0.074594,London,0
DLW,Dalwhinnie,56.934334,-4.246498,Scotland,0
DNY,Danby,54.466068,-0.910704,Yorkshire and The Humber,0
DCT,Danescourt,51.505199,-3.23332,Wales,0
DZY,Danzey,52.324329,-1.819493,West Midlands,0
DAR,Darlington,54.520462,-1.54732,North East,0
DAN,Darnall,53.381084,-1.410661,Yorkshire and The Humber,0
DSM,Darsham,52.272812,1.522343,East of England,0
DFD,Dartford,51.447548,0.217643,South East,0
DRT,Darton,53.58836,-1.531646,Yorkshire and The Humber,0
DWN,Darwen,53.69804,-2.464958,North West,0
DAT,Datchet,51.483303,-0.579978,South East,0
DVN,Davenport,53.390719,-2.153234,North West,0
DWL,Dawlish,50.580692,-3.464583,South West,0
DWW,Dawlish Warren,50.599311,-3.443903,South West,0
DEA,Deal,51.223129,1.398559,South East,0
DGT,Deansgate,53.473961,-2.250061,North West,0
DGY,Deganwy,53.294739,-3.833424,Wales,0
DHN,Deighton,53.669018,-1.751739,Yorkshire and The Humber,0
DLM,Delamere,53.228767,-2.666577,North West,0
DBD,Denby Dale,53.572628,-1.663215,Yorkshire and The Humber,0
DNM,Denham,51.578495,-0.497633,South East,0
DGC,Denham Golf Club,51.580544,-0.517774,South East,0
DMK,Denmark Hill,51.468243,-0.089475,London,0
DNT,Dent,54.282597,-2.363987,North West,0
DTN,Denton,53.457087,-2.131648,North West,0
DEP,Deptford,51.478897,-0.02711,London,0
DBY,Derby,52.916381,-1.462555,East Midlands,1
DPT,Devonport,50.378132,-4.171534,South West,0
DEW,Dewsbury,53.692089,-1.633487,Yorkshire and The Humber,0
DID,Didcot Parkway,51.611275,-1.242614,South East,0
DIG,Digby & Sowton,50.716434,-3.474574,South West,0
DMH,Dilton Marsh,51.248928,-2.207723,South West,0
DNS,Dinas Powys,51.431614,-3.21839,Wales,0
DGL,Dingle Road,51.440109,-3.179776,Wales,0
DIN,Dingwall,57.594238,-4.422611,Scotland,0
DND,Dinsdale,54.51474,-1.467051,North East,0
DTG,Dinting,53.449382,-1.970276,East Midlands,0
DSL,Disley,53.358146,-2.042465,North West,0
DIS,Diss,52.373096,1.123274,East of England,0
DOD,Dodworth,53.545216,-1.530617,Yorkshire and The Humber,0
DOL,Dolau,52.295223,-3.263955,Wales,0
DLH,Doleham,50.918686,0.610732,South East,0
DLG,Dolgarrog,53.186123,-3.822808,Wales,0
DWD,Dolwyddelan,53.052105,-3.884288,Wales,0
DON,Doncaster,53.521469,-1.140225,Yorkshire and The Humber,0
DCH,Dorchester South,50.708752,-2.437593,South West,0
DCW,Dorchester West,50.710526,-2.443274,South West,0
DOR,Dore & Totley,53.327625,-1.514997,Yorkshire and The Humber,0
DKT,Dorking West,51.236443,-0.339762,South East,0
DMS,Dormans,51.15567,-0.005183,South East,0
DDG,Dorridge,52.371861,-1.753209,West Midlands,0
DVH,Dove Holes,53.300005,-1.890678,East Midlands,0
DVP,Dover Priory,51.125988,1.304227,South East,0
DVC,Dovercourt,51.938892,1.280724,East of England,0
DVY,Dovey Junction,52.564133,-3.925273,Wales,0
DOW,Downham Market,52.60471,0.365751,East of England,0
DRG,Drayton Green,51.516326,-0.330089,London,0
DYP,Drayton Park,51.552124,-0.104723,London,0
DRM,Drem,56.005981,-2.785752,Scotland,0
DRF,Driffield,54.001526,-0.434627,Yorkshire and The Humber,0
DRI,Drigg,54.376968,-3.444066,North West,0
DTW,Droitwich Spa,52.26862,-2.158239,West Midlands,0
DRO,Dronfield,53.301357,-1.468768,East Midlands,0
DMC,Drumchapel,55.904926,-4.364204,Scotland,0
DFR,Drumfrochar,55.941292,-4.774822,Scotland,0
DRU,Drumgelloch,55.867233,-3.95114,Scotland,0
DMY,Drumry,55.904495,-4.386583,Scotland,0
DUD,Duddeston,52.488018,-1.871842,West Midlands,0
DDP,Dudley Port,52.524517,-2.049401,West Midlands,0
DFI,Duffield,52.987713,-1.486035,East Midlands,0
DRN,Duirinish,57.319847,-5.692103,Scotland,0
DST,Duke Street,55.859207,-4.212814,Scotland,0
DUL,Dullingham,52.200943,0.366197,East of England,0
DBC,Dumbarton Central,55.946705,-4.56697,Scotland,0
DBE,Dumbarton East,55.942478,-4.55387,Scotland,0
DUM,Dumbreck,55.841255,-4.309216,Scotland,0
DMF,Dumfries,55.072395,-3.605261,Scotland,0
DMP,Dumpton Park,51.345566,1.426291,South East,0
DUN,Dunbar,55.998428,-2.514625,Scotland,0
DBL,Dunblane,56.186001,-3.967296,Scotland,0
DCG,Duncraig,57.336727,-5.637282,Scotland,0
DEE,Dundee,56.456669,-2.970576,Scotland,1
DFL,Dunfermline Queen Margaret,56.080706,-3.42164,Scotland,0
DFE,Dunfermline Town,56.068233,-3.452033,Scotland,0
DKD,Dunkeld & Birnam,56.557301,-3.578097,Scotland,0
DNL,Dunlop,55.711926,-4.532435,Scotland,0
DNO,Dunrobin Castle,57.986111,-3.946595,Scotland,0
DOT,Dunston,54.952164,-1.648648,North East,0
DNG,Dunton Green,51.296425,0.171616,South East,0
DHM,Durham,54.779408,-1.581746,North East,0
DUR,Durrington-On-Sea,50.817463,-0.411463,South East,0
DYC,Dyce,57.205002,-2.191978,Scotland,0
DYF,Dyffryn Ardudwy,52.78857,-4.104242,Wales,0
EAG,Eaglescliffe,54.529449,-1.349426,North East,0
EAL,Ealing Broadway,51.51466,-0.300843,London,0
ERL,Earlestown,53.451139,-2.637674,North West,0
EAR,Earley,51.441051,-0.917989,South East,0
EAD,Earlsfield,51.441929,-0.188423,London,0
ELD,Earlswood (Surrey),51.227631,-0.171078,South East,0
EWD,Earlswood (West Midlands),52.366638,-1.861907,West Midlands,0
ECR,East Croydon,51.375679,-0.093335,London,0
EDY,East Didsbury,53.410206,-2.22111,North West,0
EDW,East Dulwich,51.460911,-0.081151,London,0
EFL,East Farleigh,51.255112,0.48498,South East,0
EGF,East Garforth,53.791622,-1.363933,Yorkshire and The Humber,0
EGR,East Grinstead,51.126213,-0.017887,South East,0
EKL,East Kilbride,55.765388,-4.18199,Scotland,0
EML,East Malling,51.285748,0.439308,South East,0
EMD,East Midlands Parkway,52.862,-1.263,East Midlands,0
ETL,East Tilbury,51.485065,0.412479,East of England,0
EWR,East Worthing,50.822071,-0.354517,South East,0
EBN,Eastbourne,50.769085,0.281847,South East,0
EBK,Eastbrook,51.437126,-3.207031,Wales,0
EST,Easterhouse,55.860157,-4.107389,Scotland,0
ERA,Eastham Rake,53.307532,-2.9812,North West,0
ESL,Eastleigh,50.968559,-1.350563,South East,0
EGN,Eastrington,53.75481,-0.786612,Yorkshire and The Humber,0
EBD,Ebbsfleet International,51.443009,0.320887,South East,0
EBV,Ebbw Vale Parkway,51.7573,-3.1965,Wales,0
EBB,Ebbw Vale Town,51.782007,-3.205996,Wales,0
ECS,Eccles Road,52.470585,0.969656,East of England,0
ECL,Eccleston Park,53.430665,-2.780555,North West,0
EDL,Edale,53.36477,-1.817395,East Midlands,0
EDN,Eden Park,51.390762,-0.026587,London,0
EBT,Edenbridge Town,51.200287,0.06689,South East,0
EDG,Edge Hill,53.402663,-2.946986,North West,0
EGY,Edinburgh Gateway,55.941,-3.32,Scotland,0
EDP,Edinburgh Park,55.927615,-3.307829,Scotland,0
EDR,Edmonton Green,51.623802,-0.059665,London,0
EFF,Effingham Junction,51.291504,-0.419536,South East,0
EGG,Eggesford,50.887848,-3.875235,South West,0
EGH,Egham,51.428925,-0.545701,South East,0
EGT,Egton,54.437679,-0.761896,Yorkshire and The Humber,0
EPH,Elephant & Castle,51.494469,-0.098462,London,0
ELG,Elgin,57.64299,-3.31163,Scotland,0
ELP,Ellesmere Port,53.282097,-2.895403,North West,0
ELE,Elmers End,51.398335,-0.049263,London,0
ESD,Elmstead Woods,51.417435,0.043594,London,0
ESW,Elmswell,52.238201,0.911625,East of England,0
ELR,Elsecar,53.498924,-1.428617,Yorkshire and The Humber,0
ELS,Elstree & Borehamwood,51.652836,-0.279779,East of England,0
ELW,Eltham,51.455101,0.0496,London,0
ELO,Elton & Orston,52.951843,-0.855362,East Midlands,0
ELY,Ely,52.390846,0.266105,East of England,0
EMP,Emerson Park,51.56889,0.220658,London,0
EMS,Emsworth,50.851326,-0.938784,South East,0
ECP,Energlyn & Churchill Park,51.5838,-3.2287,Wales,0
ENC,Enfield Chase,51.652607,-0.090404,London,0
ENL,Enfield Lock,51.671379,-0.028875,London,0
ENF,Enfield Town,51.651524,-0.078891,London,0
ENT,Entwistle,53.655591,-2.413983,North West,0
EPD,Epsom Downs,51.321365,-0.243411,South East,0
ERD,Erdington,52.528435,-1.839297,West Midlands,0
ERI,Eridge,51.089024,0.200452,South East,0
ERH,Erith,51.481621,0.174651,London,0
ESH,Esher,51.379642,-0.354714,South East,0
EKB,Eskbank,55.88956,-3.07845,Scotland,0
EXR,Essex Road,51.540302,-0.096552,London,0
ETC,Etchingham,51.010479,0.441935,South East,0
EBA,Euxton Balshaw Lane,53.670071,-2.675045,North West,0
EVE,Evesham,52.098793,-1.947413,West Midlands,0
EWE,Ewell East,51.345612,-0.24106,South East,0
EWW,Ewell West,51.349445,-0.256711,South East,0
EXC,Exeter Central,50.726471,-3.532973,South West,1
EXT,Exeter St Thomas,50.716529,-3.538759,South West,0
EXM,Exmouth,50.620937,-3.415035,South West,0
EXN,Exton,50.668255,-3.443337,South West,0
EYN,Eynsford,51.362377,0.203465,South East,0
FRB,Fairbourne,52.696018,-4.049464,Wales,0
FRF,Fairfield,53.471215,-2.14581,North West,0
FRL,Fairlie,55.752514,-4.853834,Scotland,0
FRW,Fairwater,51.491714,-3.232963,Wales,0
FCN,Falconwood,51.459087,0.078571,London,0
FKG,Falkirk Grahamston,56.002735,-3.786359,Scotland,0
FKK,Falkirk High,55.991863,-3.792276,Scotland,0
FMR,Falmer,50.862064,-0.087364,South East,0
FAL,Falmouth Docks,50.15075,-5.0559,South West,0
FMT,Falmouth Town,50.148392,-5.065443,South West,0
FRM,Fareham,50.853352,-1.19162,South East,0
FNN,Farnborough North,51.301723,-0.743385,South East,0
FNC,Farncombe,51.197639,-0.604522,South East,0
FNH,Farnham,51.211422,-0.793093,South East,0
FNR,Farningham Road,51.401337,0.235533,South East,0
FNW,Farnworth,53.549999,-2.387857,North West,0
ZFD,Farringdon,51.520071,-0.104665,London,0
FLD,Fauldhouse,55.822163,-3.719006,Scotland,0
FAV,Faversham,51.311436,0.891278,South East,0
FGT,Faygate,51.095943,-0.263403,South East,0
FAZ,Fazakerley,53.469063,-2.936729,North West,0
FRN,Fearn,57.777828,-3.994245,Scotland,0
FEA,Featherstone,53.679253,-1.359562,Yorkshire and The Humber,0
FLX,Felixstowe,51.967449,1.352707,East of England,0
FEL,Feltham,51.447845,-0.40983,London,0
FNT,Feniton,50.787022,-3.285259,South West,0
FEN,Fenny Stratford,52.000103,-0.716636,South East,0
FER,Fernhill,51.685932,-3.394469,Wales,0
FRY,Ferriby,53.716625,-0.508878,Yorkshire and The Humber,0
FYS,Ferryside,51.76833,-4.36952,Wales,0
FFA,Ffairfach,51.87244,-3.992916,Wales,0
FIL,Filey,54.209946,-0.293351,Yorkshire and The Humber,0
FIT,Filton Abbey Wood,51.509438,-2.561933,South West,0
FNY,Finchley Road & Frognal,51.550198,-0.183324,London,0
FPK,Finsbury Park,51.564724,-0.105642,London,0
FIN,Finstock,51.85305,-1.47003,South East,0
FSB,Fishbourne (Sussex),50.839352,-0.815495,South East,0
FSG,Fishersgate,50.834469,-0.219161,South East,0
FGW,Fishguard & Goodwick,52.0035,-4.9948,Wales,0
FGH,Fishguard Harbour,52.011505,-4.985713,Wales,0
FSK,Fiskerton,53.060253,-0.912181,East Midlands,0
FZW,Fitzwilliam,53.632587,-1.375391,Yorkshire and The Humber,0
FWY,Five Ways,52.470078,-1.913116,West Midlands,0
FLE,Fleet,51.290947,-0.831169,South East,0
FLM,Flimby,54.689815,-3.520544,North West,0
FLN,Flint,53.249516,-3.13302,Wales,0
FLT,Flitwick,52.003457,-0.4952,East of England,0
FLI,Flixton,53.443746,-2.383878,North West,0
FLF,Flowery Field,53.461737,-2.080965,North West,0
FKC,Folkestone Central,51.082985,1.168331,South East,0
FKW,Folkestone West,51.085163,1.154209,South East,0
FOD,Ford,50.829506,-0.578611,South East,0
FOG,Forest Gate,51.549976,0.023568,London,0
FOH,Forest Hill,51.438869,-0.053297,London,0
FBY,Formby,53.553796,-3.070706,North West,0
FOR,Forres,57.609661,-3.62847,Scotland,0
FRS,Forsinard,58.356998,-3.896903,Scotland,0
FTM,Fort Matilda,55.958809,-4.7953,Scotland,0
FTW,Fort William,56.820625,-5.106721,Scotland,0
FOK,Four Oaks,52.579662,-1.8273,West Midlands,0
FOX,Foxfield,54.259041,-3.215796,North West,0
FXN,Foxton,52.119526,0.056572,East of England,0
FRT,Frant,51.104321,0.294034,South East,0
FTN,Fratton,50.795818,-1.073422,South East,0
FRE,Freshfield,53.566494,-3.072014,North West,0
FFD,Freshford,51.342251,-2.30146,South West,0
FML,Frimley,51.311653,-0.747426,South East,0
FZH,Frizinghall,53.820957,-1.769072,Yorkshire and The Humber,0
FRD,Frodsham,53.295853,-2.723145,North West,0
FRO,Frome,51.227131,-2.309302,South West,0
FLW,Fulwell,51.433525,-0.349893,London,0
FNV,Furness Vale,53.348385,-1.989445,East Midlands,0
FZP,Furze Platt,51.533082,-0.728467,South East,0
GNB,Gainsborough Central,53.399574,-0.769674,East Midlands,0
GBL,Gainsborough Lea Road,53.386078,-0.768558,East Midlands,0
GAL,Galashiels,55.610426,-2.809693,Scotland,0
GCH,Garelochhead,56.079449,-4.826544,Scotland,0
GRF,Garforth,53.796211,-1.382083,Yorkshire and The Humber,0
GGV,Gargrave,53.97842,-2.105171,Yorkshire and The Humber,0
GAR,Garrowhill,55.855286,-4.129497,Scotland,0
GRS,Garscadden,55.88784,-4.364757,Scotland,0
GSD,Garsdale,54.32135,-2.325891,North West,0
GSN,Garston (Hertfordshire),51.686685,-0.381689,East of England,0
GSW,Garswood,53.488518,-2.672149,North West,0
GRH,Gartcosh,55.885,-4.078,Scotland,0
GVE,Garve,57.613129,-4.688429,Scotland,0
GST,Gathurst,53.559399,-2.694418,North West,0
GTY,Gatley,53.394001,-2.230052,North West,0
GTW,Gatwick Airport,51.156425,-0.161022,South East,0
GGJ,Georgemas Junction,58.513721,-3.45212,Scotland,0
GER,Gerrards Cross,51.588883,-0.555367,South East,0
GDP,Gidea Park,51.581772,0.205411,London,0
GFN,Giffnock,55.804688,-4.294289,Scotland,0
GIG,Giggleswick,54.061775,-2.302644,Yorkshire and The Humber,0
GBD,Gilberdyke,53.747955,-0.732223,Yorkshire and The Humber,0
GFF,Gilfach Fargoed,51.684208,-3.226604,Wales,0
GIL,Gillingham (Dorset),51.033886,-2.272361,South West,0
GLM,Gillingham (Kent),51.386829,0.549618,South East,0
GSC,Gilshochill,55.897295,-4.28201,Scotland,0
GIP,Gipsy Hill,51.424984,-0.084096,London,0
GIR,Girvan,55.246517,-4.848927,Scotland,0
GLS,Glaisdale,54.439796,-0.794221,Yorkshire and The Humber,0
GCW,Glan Conwy,53.266644,-3.796892,Wales,0
GLC,Glasgow Central,55.860157,-4.259208,Scotland,1
GLQ,Glasgow Queen Street,55.863003,-4.251385,Scotland,1
GLH,Glasshoughton,53.70884,-1.34247,Yorkshire and The Humber,0
GLZ,Glazebrook,53.428076,-2.461152,North West,0
GLE,Gleneagles,56.274902,-3.7312,Scotland,0
GLF,Glenfinnan,56.872753,-5.449219,Scotland,0
GLG,Glengarnock,55.738579,-4.674364,Scotland,0
GLT,Glenrothes with Thornton,56.162224,-3.143189,Scotland,0
GLO,Glossop,53.444503,-1.949403,East Midlands,0
GCR,Gloucester,51.864799,-2.238141,South West,0
GLY,Glynde,50.859398,0.06883,South East,0
GOB,Gobowen,52.893501,-3.036019,West Midlands,0
GOD,Godalming,51.186115,-0.619175,South East,0
GDL,Godley,53.448151,-2.049649,North West,0
GDN,Godstone,51.217606,-0.051188,South East,0
GOE,Goldthorpe,53.533379,-1.313488,Yorkshire and The Humber,0
GOF,Golf Street,56.497852,-2.719541,Scotland,0
GOL,Golspie,57.971092,-3.98806,Scotland,0
GOM,Gomshall,51.218964,-0.442065,South East,0
GMY,Goodmayes,51.565502,0.112277,London,0
GOO,Goole,53.704426,-0.872907,Yorkshire and The Humber,0
GTR,Goostrey,53.222634,-2.32628,North West,0
GDH,Gordon Hill,51.66346,-0.094289,London,0
GBG,Gorebridge,55.836732,-3.046099,Scotland,0
GOR,Goring & Streatley,51.521428,-1.133051,South East,0
GBS,Goring-By-Sea,50.817753,-0.432751,South East,0
GTO,Gorton,53.468712,-2.167182,North West,0
GPO,Gospel Oak,51.555546,-0.150737,London,0
GRK,Gourock,55.962788,-4.818021,Scotland,0
GWN,Gowerton,51.648701,-4.035124,Wales,0
GOX,Goxhill,53.676613,-0.337699,Yorkshire and The Humber,0
GPK,Grange Park,51.642811,-0.096599,London,0
GOS,Grange-Over-Sands,54.195282,-2.902752,North West,0
GRA,Grantham,52.906448,-0.642438,East Midlands,0
GRT,Grateley,51.170269,-1.619497,South East,0
GVH,Gravelly Hill,52.514969,-1.852612,West Midlands,0
GRV,Gravesend,51.441029,0.36699,South East,0
GRY,Grays,51.476089,0.322719,East of England,0
GTA,Great Ayton,54.4902,-1.113845,Yorkshire and The Humber,0
GRB,Great Bentley,51.85207,1.065258,East of England,0
GRC,Great Chesterford,52.060402,0.1939,East of England,0
GCT,Great Coates,53.575542,-0.128701,Yorkshire and The Humber,0
GMV,Great Malvern,52.109165,-2.318289,West Midlands,0
GMN,Great Missenden,51.703304,-0.709132,South East,0
GYM,Great Yarmouth,52.612122,1.720949,East of England,0
GNL,Green Lane,53.38271,-3.016281,North West,0
GNR,Green Road,54.244748,-3.245602,North West,0
GBK,Greenbank,53.251664,-2.533185,North West,0
GRL,Greenfaulds,55.932064,-3.999232,Scotland,0
GNF,Greenfield,53.538835,-2.014189,North West,0
GFD,Greenford,51.54235,-0.3463,London,0
GNH,Greenhithe for Bluewater,51.450855,0.279694,South East,0
GKC,Greenock Central,55.945385,-4.752692,Scotland,0
GKW,Greenock West,55.94772,-4.768866,Scotland,0
GNW,Greenwich,51.477779,-0.014198,London,0
GEA,Gretna Green,55.001934,-3.064608,Scotland,0
GMD,Grimsby Docks,53.574699,-0.075873,Yorkshire and The Humber,0
GMB,Grimsby Town,53.564091,-0.086922,Yorkshire and The Humber,0
GRN,Grindleford,53.30555,-1.62629,East Midlands,0
GMT,Grosmont,54.436394,-0.724937,Yorkshire and The Humber,0
GRP,Grove Park,51.430389,0.022597,London,0
GUI,Guide Bridge,53.474171,-2.112961,North West,0
GLD,Guildford,51.236912,-0.580409,South East,0
GSY,Guiseley,53.875668,-1.715537,Yorkshire and The Humber,0
GUN,Gunnersbury,51.491814,-0.275766,London,0
GSL,Gunnislake,50.515992,-4.219437,South West,0
GNT,Gunton,52.866077,1.348821,East of England,0
GWE,Gwersyllt,53.072559,-3.017913,Wales,0
GYP,Gypsy Lane,54.532902,-1.179375,North East,0
HAB,Habrough,53.605507,-0.267936,Yorkshire and The Humber,0
HCB,Hackbridge,51.378437,-0.15358,London,0
HKC,Hackney Central,51.546825,-0.055896,London,0
HAC,Hackney Downs,51.548695,-0.060144,London,0
HKW,Hackney Wick,51.543625,-0.025759,London,0
HDM,Haddenham & Thame Parkway,51.770788,-0.942121,South East,0
HAD,Haddiscoe,52.528835,1.622451,East of England,0
HDF,Hadfield,53.460873,-1.965429,East Midlands,0
HDW,Hadley Wood,51.668365,-0.176519,London,0
HGF,Hag Fold,53.533442,-2.493744,North West,0
HGG,Haggerston,51.53912,-0.07642,London,0
HAG,Hagley,52.422375,-2.147018,West Midlands,0
HMY,Hairmyres,55.762012,-4.220047,Scotland,0
HAS,Halesworth,52.346157,1.506141,East of England,0
HED,Halewood,53.364466,-2.830149,North West,0
HFX,Halifax,53.720417,-1.854486,Yorkshire and The Humber,0
HLG,Hall Green,52.436745,-1.845513,West Midlands,0
HLR,Hall Road,53.497442,-3.049607,North West,0
HAI,Halling,51.352169,0.445711,South East,0
HWH,Haltwhistle,54.967972,-2.462321,North East,0
HMT,Ham Street,51.067684,0.854653,South East,0
HME,Hamble,50.871311,-1.329173,South East,0
HNC,Hamilton Central,55.773239,-4.038928,Scotland,0
HNW,Hamilton West,55.779232,-4.056781,Scotland,0
HMM,Hammerton,53.996105,-1.283026,Yorkshire and The Humber,0
HDH,Hampstead Heath,51.555779,-0.165159,London,0
HMC,Hampton Court,51.401947,-0.342412,South East,0
HMW,Hampton Wick,51.41412,-0.313201,London,0
HIA,Hampton-In-Arden,52.428375,-1.699934,West Midlands,0
HAM,Hamworthy,50.725754,-2.018381,South West,0
HND,Hanborough,51.825172,-1.373471,South East,0
HTH,Handforth,53.34639,-2.213263,North West,0
HAN,Hanwell,51.511604,-0.338432,London,0
HPN,Hapton,53.781393,-2.318115,North West,0
HRL,Harlech,52.861309,-4.109248,Wales,0
HDN,Harlesden,51.536518,-0.258214,London,0
HRD,Harling Road,52.454128,0.908188,East of England,0
HWM,Harlow Mill,51.790878,0.131497,East of England,0
HWN,Harlow Town,51.781639,0.094804,East of England,0
HRO,Harold Wood,51.592907,0.234819,London,0
HPD,Harpenden,51.814831,-0.351961,East of England,0
HRM,Harrietsham,51.244652,0.673574,South East,0
HRY,Harringay Green Lanes,51.577336,-0.098104,London,0
HGY,Harringay,51.577305,-0.105115,London,0
HRR,Harrington,54.613551,-3.565573,North West,0
HGT,Harrogate,53.991959,-1.537814,Yorkshire and The Humber,0
HRW,Harrow & Wealdstone,51.591576,-0.334067,London,0
HBY,Hartlebury,52.335049,-2.22158,West Midlands,0
HPL,Hartlepool,54.686771,-1.2073,North East,0
HTW,Hartwood,55.810532,-3.839792,Scotland,0
HPQ,Harwich International,51.947701,1.255167,East of England,0
HWC,Harwich Town,51.944157,1.285469,East of England,0
HSL,Haslemere,51.089237,-0.719162,South East,0
HSK,Hassocks,50.923264,-0.146043,South East,0
HGS,Hastings,50.858288,0.57608,South East,0
HTE,Hatch End,51.610054,-0.369499,London,0
HFS,Hatfield & Stainforth,53.589532,-1.020931,Yorkshire and The Humber,0
HAP,Hatfield Peverel,51.779785,0.593463,East of England,0
HSG,Hathersage,53.325405,-1.651641,East Midlands,0
HTY,Hattersley,53.445126,-2.040324,North West,0
HTN,Hatton,52.295242,-1.672982,West Midlands,0
HAV,Havant,50.854416,-0.982763,South East,0
HVN,Havenhouse,53.114548,0.272619,East Midlands,0
HVF,Haverfordwest,51.802601,-4.960279,Wales,0
HWB,Hawarden Bridge,53.218971,-3.031866,Wales,0
HWD,Hawarden,53.185703,-3.032561,Wales,0
HKH,Hawkhead,55.843136,-4.398792,Scotland,0
HDB,Haydon Bridge,54.974888,-2.246809,North East,0
HYR,Haydons Road,51.425755,-0.189073,London,0
HAY,Hayes & Harlington,51.502973,-0.420785,London,0
HYS,Hayes (Kent),51.375744,0.010123,London,0
HYL,Hayle,50.186176,-5.419558,South West,0
HHE,Haywards Heath,51.00536,-0.105717,South East,0
HAZ,Hazel Grove,53.377415,-2.122121,North West,0
HCN,Headcorn,51.165657,0.627507,South East,0
HDY,Headingley,53.817787,-1.59289,Yorkshire and The Humber,0
HDL,Headstone Lane,51.60268,-0.356766,London,0
HDG,Heald Green,53.369248,-2.236533,North West,0
HLI,Healing,53.581425,-0.160163,Yorkshire and The Humber,0
HHL,Heath High Level,51.516518,-3.181737,Wales,0
HLL,Heath Low Level,51.515606,-3.183163,Wales,0
HTC,Heaton Chapel,53.425556,-2.179046,North West,0
HBD,Hebden Bridge,53.737587,-2.009063,Yorkshire and The Humber,0
HEC,Heckington,52.977463,-0.29316,East Midlands,0
HDE,Hedge End,50.927773,-1.297056,South East,0
HNF,Hednesford,52.709922,-2.00199,West Midlands,0
HEI,Heighington,54.596977,-1.582071,North East,0
HLC,Helensburgh Central,56.004261,-4.732803,Scotland,0
HLU,Helensburgh Upper,56.013268,-4.73184,Scotland,0
HLD,Hellifield,54.010972,-2.227961,Yorkshire and The Humber,0
HMS,Helmsdale,58.117737,-3.660068,Scotland,0
HSB,Helsby,53.275784,-2.770786,North West,0
HML,Hemel Hempstead,51.742062,-0.490762,East of England,0
HEN,Hendon,51.580057,-0.238652,London,0
HNG,Hengoed,51.647362,-3.224162,Wales,0
HNL,Henley-In-Arden,52.291,-1.784444,West Midlands,0
HOT,Henley-On-Thames,51.534182,-0.900133,South East,0
HEL,Hensall,53.698357,-1.113905,Yorkshire and The Humber,0
HFD,Hereford,52.060715,-2.708854,West Midlands,0
HNB,Herne Bay,51.364059,1.118742,South East,0
HNH,Herne Hill,51.453148,-0.101624,London,0
HER,Hersham,51.377419,-0.389271,South East,0
HFE,Hertford East,51.799793,-0.072591,East of England,0
HFN,Hertford North,51.798328,-0.092961,East of England,0
HES,Hessle,53.717567,-0.442169,Yorkshire and The Humber,0
HSW,Heswall,53.32917,-3.073568,North West,0
HEV,Hever,51.180912,0.094648,South East,0
HEW,Heworth,54.951862,-1.554976,North East,0
HEX,Hexham,54.974201,-2.095266,North East,0
HYD,Heyford,51.91902,-1.299262,South East,0
HHB,Heysham Port,54.033284,-2.913179,North West,0
HIB,High Brooms,51.149609,0.277686,South East,0
HWY,High Wycombe,51.629793,-0.745139,South East,0
HGM,Higham,51.426376,0.466931,South East,0
HIP,Highams Park,51.608837,0.000183,London,0
HIG,Highbridge & Burnham,51.218098,-2.972192,South West,0
HHY,Highbury & Islington,51.54668,-0.10206,London,0
HTO,Hightown,53.525272,-3.057407,North West,0
HLB,Hildenborough,51.214451,0.226465,South East,0
HLF,Hillfoot,55.920143,-4.32032,Scotland,0
HLE,Hillington East,55.854778,-4.354768,Scotland,0
HLW,Hillington West,55.85537,-4.370778,Scotland,0
HIL,Hillside,53.62217,-3.024673,North West,0
HLS,Hilsea,50.828075,-1.058592,South East,0
HYW,Hinchley Wood,51.374939,-0.340508,South East,0
HIN,Hindley,53.542053,-2.574909,North West,0
HNA,Hinton Admiral,50.752384,-1.713616,South East,0
HIT,Hitchin,51.952915,-0.262498,East of England,0
HGR,Hither Green,51.452374,-0.000906,London,0
HOC,Hockley,51.603825,0.659971,East of England,0
HBN,Hollingbourne,51.265484,0.627465,South East,0
HCH,Holmes Chapel,53.199131,-2.351063,North West,0
HLM,Holmwood,51.180428,-0.321752,South East,0
HOL,Holton Heath,50.711346,-2.077863,South West,0
HHD,Holyhead,53.307674,-4.631062,Wales,0
HLY,Holytown,55.812943,-3.973967,Scotland,0
HMN,Homerton,51.546535,-0.038601,London,0
HYB,Honeybourne,52.101383,-1.834989,West Midlands,0
HON,Honiton,50.797062,-3.186207,South West,0
HOY,Honley,53.608849,-1.780814,Yorkshire and The Humber,0
HPA,Honor Oak Park,51.450428,-0.045607,London,0
HOK,Hook,51.279587,-0.961933,South East,0
HOO,Hooton,53.296741,-2.976721,North West,0
HOP,Hope (Derbyshire),53.346283,-1.729587,East Midlands,0
HPT,Hopton Heath,52.391964,-2.912536,West Midlands,0
HRE,Horden,54.763879,-1.307347,North East,0
HOR,Horley,51.168137,-0.161994,South East,0
HBP,Hornbeam Park,53.980236,-1.527272,Yorkshire and The Humber,0
HRN,Hornsey,51.586414,-0.111961,London,0
HRS,Horsforth,53.847576,-1.630612,Yorkshire and The Humber,0
HRH,Horsham,51.066174,-0.318753,South East,0
HSY,Horsley,51.279114,-0.434304,South East,0
HWI,Horwich Parkway,53.579948,-2.543712,North West,0
HSC,Hoscar,53.597366,-2.803828,North West,0
HGN,Hough Green,53.372378,-2.775056,North West,0
HOU,Hounslow,51.462471,-0.361808,London,0
HOV,Hove,50.835514,-0.170824,South East,0
HXM,Hoveton & Wroxham,52.715084,1.408312,East of England,0
HOW,Howden,53.764526,-0.86068,Yorkshire and The Humber,0
HOX,Hoxton,51.53193,-0.07672,London,0
HYK,Hoylake,53.390202,-3.178861,North West,0
HBB,Hubberts Bridge,52.975594,-0.110044,East Midlands,0
HKN,Hucknall,53.038265,-1.195793,East Midlands,0
HUD,Huddersfield,53.648407,-1.785142,Yorkshire and The Humber,0
HUL,Hull,53.744144,-0.345645,Yorkshire and The Humber,0
HUP,Humphrey Park,53.452321,-2.327363,North West,0
HCT,Huncoat,53.772144,-2.345903,North West,0
HGD,Hungerford,51.415344,-1.511056,South East,0
HUB,Hunmanby,54.17429,-0.314737,Yorkshire and The Humber,0
HUN,Huntingdon,52.328613,-0.192047,East of England,0
HNT,Huntly,57.444401,-2.776354,Scotland,0
HNX,Hunts Cross,53.360644,-2.855716,North West,0
HUR,Hurst Green,51.244545,0.004397,South East,0
HUT,Hutton Cranswick,53.955669,-0.43331,Yorkshire and The Humber,0
HUY,Huyton,53.409813,-2.842991,North West,0
HYC,Hyde Central,53.451682,-2.085149,North West,0
HYT,Hyde North,53.464306,-2.085829,North West,0
HKM,Hykeham,53.194546,-0.600412,East Midlands,0
HYN,Hyndland,55.879803,-4.314715,Scotland,0
IFI,Ifield,51.115902,-0.215505,South East,0
IFD,Ilford,51.559078,0.068699,London,0
ILN,Ilkeston,52.9794,-1.2949,East Midlands,0
ILK,Ilkley,53.925304,-1.821799,Yorkshire and The Humber,0
IMW,Imperial Wharf,51.475134,-0.183026,London,0
INT,Ingatestone,51.667301,0.384556,East of England,0
INS,Insch,57.33749,-2.616279,Scotland,0
IGD,Invergordon,57.688587,-4.175563,Scotland,0
ING,Invergowrie,56.456795,-3.057897,Scotland,0
INK,Inverkeithing,56.034725,-3.39621,Scotland,0
INP,Inverkip,55.905781,-4.873089,Scotland,0
INV,Inverness,57.480194,-4.223199,Scotland,1
INH,Invershin,57.925362,-4.399288,Scotland,0
INR,Inverurie,57.286343,-2.373224,Scotland,0
IPS,Ipswich,52.050552,1.144481,East of England,0
IRL,Irlam,53.434172,-2.432989,North West,0
IRV,Irvine,55.610916,-4.675196,Scotland,0
ISL,Isleworth,51.474709,-0.33689,London,0
ISP,Islip,51.82571,-1.238185,South East,0
IVR,Iver,51.508342,-0.506659,South East,0
IVY,Ivybridge,50.393515,-3.904954,South West,0
JCH,James Cook University Hospital,54.5515,-1.2076,North East,0
JEQ,Jewellery Quarter,52.489514,-1.913522,West Midlands,0
JOR,Jordanhill,55.882282,-4.326053,Scotland,0
KEI,Keighley,53.86787,-1.90112,Yorkshire and The Humber,0
KEH,Keith,57.550976,-2.954062,Scotland,0
KEL,Kelvedon,51.841202,0.701529,East of England,0
KVD,Kelvindale,55.8933,-4.3106,Scotland,0
KEM,Kemble,51.67622,-2.023115,South West,0
KMH,Kempston Hardwick,52.092026,-0.505266,East of England,0
KMS,Kemsing,51.297684,0.247716,South East,0
KML,Kemsley,51.361996,0.733559,South East,0
KEN,Kendal,54.332108,-2.739667,North West,0
KNW,Kenilworth,52.3429,-1.5726,West Midlands,0
KLY,Kenley,51.324547,-0.101199,London,0
KNE,Kennett,52.277523,0.490482,East of England,0
KNS,Kennishead,55.813099,-4.325119,Scotland,0
KNL,Kensal Green,51.530602,-0.223847,London,0
KNR,Kensal Rise,51.534157,-0.220811,London,0
KPA,Kensington Olympia,51.497753,-0.210189,London,0
KTH,Kent House,51.412659,-0.045786,London,0
KTN,Kentish Town,51.550338,-0.140446,London,0
KTW,Kentish Town West,51.546501,-0.146778,London,0
KNT,Kenton,51.581436,-0.317123,London,0
KBK,Kents Bank,54.172967,-2.925351,North West,0
KET,Kettering,52.393177,-0.731724,East Midlands,0
KWB,Kew Bridge,51.489311,-0.288827,London,0
KWG,Kew Gardens,51.477558,-0.284949,London,0
KEY,Keyham,50.389687,-4.179095,South West,0
KYN,Keynsham,51.417122,-2.49465,South West,0
KDB,Kidbrooke,51.462662,0.028331,London,0
KID,Kidderminster,52.384457,-2.239458,West Midlands,0
KDG,Kidsgrove,53.086555,-2.244828,West Midlands,0
KWL,Kidwelly,51.734299,-4.317046,Wales,0
KBN,Kilburn High Road,51.537312,-0.19186,London,0
KLD,Kildale,54.477268,-1.067829,Yorkshire and The Humber,0
KIL,Kildonan,58.171432,-3.869993,Scotland,0
KGT,Kilgetty,51.732071,-4.715219,Wales,0
KMK,Kilmarnock,55.612835,-4.499048,Scotland,0
KLM,Kilmaurs,55.636425,-4.532331,Scotland,0
KPT,Kilpatrick,55.924755,-4.453454,Scotland,0
KWN,Kilwinning,55.655994,-4.710071,Scotland,0
KBC,Kinbrace,58.258408,-3.941063,Scotland,0
KGM,Kingham,51.902222,-1.629331,South East,0
KGH,Kinghorn,56.069389,-3.174161,Scotland,0
KGL,Kings Langley,51.70631,-0.438411,East of England,0
KLN,Kings Lynn,52.754108,0.403475,East of England,0
KNN,Kings Norton,52.413456,-1.933801,West Midlands,0
KGN,Kings Nympton,50.935921,-3.905634,South West,0
KGP,Kings Park,55.819935,-4.247294,Scotland,0
KGS,Kings Sutton,52.020184,-1.280066,East Midlands,0
KGE,Kingsknowe,55.919323,-3.265634,Scotland,0
KNG,Kingston,51.412155,-0.301768,London,0
KND,Kingswood,51.294807,-0.211439,South East,0
KIN,Kingussie,57.07785,-4.052227,Scotland,0
KIT,Kintbury,51.40247,-1.445059,South East,0
KTR,Kintore,57.243611,-2.350278,Scotland,0
KBX,Kirby Cross,51.840897,1.214045,East of England,0
KKS,Kirk Sandall,53.56347,-1.075006,Yorkshire and The Humber,0
KSW,Kirkby Stephen,54.455135,-2.368603,North West,0
KBF,Kirkby-In-Furness,54.232426,-3.187398,North West,0
KDY,Kirkcaldy,56.112579,-3.167445,Scotland,0
KRK,Kirkconnel,55.38834,-3.998533,Scotland,0
KKD,Kirkdale,53.440896,-2.981093,North West,0
KKM,Kirkham & Wesham,53.787373,-2.881834,North West,0
KKH,Kirkhill,55.814156,-4.168751,Scotland,0
KKN,Kirknewton,55.888744,-3.432526,Scotland,0
KLF,Kirkstall Forge,53.826,-1.62,Yorkshire and The Humber,0
KWD,Kirkwood,55.85577,-4.048037,Scotland,0
KTL,Kirton Lindsey,53.484829,-0.593886,Yorkshire and The Humber,0
KIV,Kiveton Bridge,53.340729,-1.265524,Yorkshire and The Humber,0
KVP,Kiveton Park,53.336975,-1.240052,Yorkshire and The Humber,0
KNA,Knaresborough,54.008755,-1.470482,Yorkshire and The Humber,0
KBW,Knebworth,51.86636,-0.187406,East of England,0
KNI,Knighton,52.345043,-3.042232,West Midlands,0
KCK,Knockholt,51.34573,0.130865,London,0
KNO,Knottingley,53.706528,-1.259172,Yorkshire and The Humber,0
KNU,Knucklas,52.359833,-3.096907,Wales,0
KNF,Knutsford,53.301956,-2.372101,North West,0
LDY,Ladybank,56.273834,-3.122284,Scotland,0
LAD,Ladywell,51.456291,-0.019445,London,0
LAI,Laindon,51.567566,0.424063,East of England,0
LRG,Lairg,58.001701,-4.401,Scotland,0
LKE,Lake,50.64814,-1.16686,South East,0
LAK,Lakenheath,52.447456,0.533911,East of England,0
LAM,Lamphey,51.667145,-4.873332,Wales,0
LNK,Lanark,55.673119,-3.772901,Scotland,0
LAN,Lancaster,54.048553,-2.807934,North West,0
LAC,Lancing,50.827015,-0.323103,South East,0
LAW,Landywood,52.657101,-2.020659,West Midlands,0
LGB,Langbank,55.924725,-4.586326,Scotland,0
LHO,Langho,53.804934,-2.447934,North West,0
LGG,Langley Green,52.494385,-2.005857,West Midlands,0
LGM,Langley Mill,53.018236,-1.330982,East Midlands,0
LGS,Langside,55.821175,-4.277696,Scotland,0
LGW,Langwathby,54.694744,-2.662457,North West,0
LAP,Lapford,50.857384,-3.811489,South West,0
LPW,Lapworth,52.341232,-1.72549,West Midlands,0
LBT,Larbert,56.022751,-3.830604,Scotland,0
LAR,Largs,55.792637,-4.867942,Scotland,0
LRH,Larkhall,55.739258,-3.974445,Scotland,0
LAU,Laurencekirk,56.835945,-2.466345,Scotland,0
LWH,Lawrence Hill,51.458168,-2.564183,South West,0
LZB,Lazonby & Kirkoswald,54.750233,-2.702207,North West,0
LEB,Lea Bridge,51.5672,-0.00363,London,0
LEG,Lea Green,53.42709,-2.72386,North West,0
LEH,Lea Hall,52.480709,-1.786457,West Midlands,0
LEA,Leagrave,51.905304,-0.459139,East of England,0
LHM,Lealholm,54.459885,-0.826027,Yorkshire and The Humber,0
LMS,Leamington Spa,52.284893,-1.536723,West Midlands,0
LSW,Leasowe,53.408035,-3.099624,North West,0
LHD,Leatherhead,51.298397,-0.333225,South East,0
LED,Ledbury,52.044991,-2.425728,West Midlands,0
LDS,Leeds,53.795158,-1.549089,Yorkshire and The Humber,1
LEI,Leicester,52.631397,-1.125274,East Midlands,0
LIH,Leigh (Kent),51.194057,0.211179,South East,0
LBZ,Leighton Buzzard,51.916046,-0.676874,East of England,0
LTS,Lelant Saltings,50.17923,-5.441468,South West,0
LEL,Lelant,50.183887,-5.436207,South West,0
LEN,Lenham,51.233986,0.707337,South East,0
LNZ,Lenzie,55.921364,-4.153932,Scotland,0
LEO,Leominster,52.225109,-2.730506,West Midlands,0
LET,Letchworth Garden City,51.980305,-0.229403,East of England,0
LVM,Levenshulme,53.444405,-2.192676,North West,0
LWS,Lewes,50.870281,0.012455,South East,0
LEW,Lewisham,51.466099,-0.014703,London,0
LEY,Leyland,53.69886,-2.687101,North West,0
LEM,Leyton Midland Road,51.569393,-0.007313,London,0
LER,Leytonstone High Road,51.563725,0.008304,London,0
LIC,Lichfield City,52.680347,-1.825431,West Midlands,0
LTV,Lichfield Trent Valley,52.6869,-1.800014,West Midlands,0
LID,Lidlington,52.041385,-0.558972,East of England,0
LHS,Limehouse,51.51239,-0.040071,London,0
LFD,Lingfield,51.176392,-0.007151,South East,0
LGD,Lingwood,52.621872,1.489735,East of England,0
LIN,Linlithgow,55.975689,-3.596,Scotland,0
LIP,Liphook,51.071213,-0.801027,South East,0
LSK,Liskeard,50.446711,-4.46753,South West,0
LIS,Liss,51.044254,-0.893023,South East,0
LVT,Lisvane & Thornhill,51.544357,-3.185344,Wales,0
LTK,Little Kimble,51.752014,-0.809152,South East,0
LTT,Little Sutton,53.285537,-2.943134,North West,0
LTL,Littleborough,53.642988,-2.094698,North West,0
LIT,Littlehampton,50.810226,-0.546547,South East,0
LVN,Littlehaven,51.079514,-0.308276,South East,0
LTP,Littleport,52.462696,0.316905,East of England,0
LVC,Liverpool Central,53.40525,-2.977841,North West,0
LIV,Liverpool Lime Street,53.407299,-2.977746,North West,1
LPY,Liverpool South Parkway,53.3577,-2.8897,North West,0
LSN,Livingston North,55.901736,-3.543357,Scotland,0
LVG,Livingston South,55.871712,-3.503823,Scotland,0
LLA,Llanaber,52.741375,-4.078263,Wales,0
LBR,Llanbedr,52.820835,-4.110252,Wales,0
LLT,Llanbister Road,52.336231,-3.212283,Wales,0
LNB,Llanbradach,51.60321,-3.233085,Wales,0
LLN,Llandaf,51.507942,-3.229076,Wales,0
LDN,Llandanwg,52.835865,-4.124342,Wales,0
LLC,Llandecwyn,52.920666,-4.057092,Wales,0
LLL,Llandeilo,51.885117,-3.987662,Wales,0
LLV,Llandovery,51.99509,-3.803163,Wales,0
LLO,Llandrindod,52.242687,-3.37963,Wales,0
LLD,Llandudno,53.320911,-3.827043,Wales,0
LLJ,Llandudno Junction,53.283953,-3.809102,Wales,0
LLI,Llandybie,51.820099,-4.003658,Wales,0
LLE,Llanelli,51.673405,-4.162068,Wales,0
LLF,Llanfairfechan,53.257278,-3.983256,Wales,0
LPG,Llanfairpwll,53.22094,-4.209263,Wales,0
LLG,Llangadog,51.940639,-3.892638,Wales,0
LLM,Llangammarch,52.113724,-3.55528,Wales,0
LLH,Llangennech,51.691093,-4.078988,Wales,0
LGO,Llangynllo,52.350227,-3.161273,Wales,0
LLR,Llanharan,51.53759,-3.4408,Wales,0
LTH,Llanhilleth,51.700339,-3.137033,Wales,0
LLS,Llanishen,51.533592,-3.182181,Wales,0
LWR,Llanrwst,53.14401,-3.802844,Wales,0
LAS,Llansamlet,51.660973,-3.892526,Wales,0
LWM,Llantwit Major,51.40623,-3.47503,Wales,0
LNR,Llanwrda,51.962551,-3.871719,Wales,0
LNW,Llanwrtyd,52.104584,-3.632354,Wales,0
LLW,Llwyngwril,52.66658,-4.088024,Wales,0
LLY,Llwynypia,51.633957,-3.453557,Wales,0
LHA,Loch Awe,56.402481,-5.040117,Scotland,0
LHE,Loch Eil Outward Bound,56.855343,-5.191638,Scotland,0
LCL,Lochailort,56.881035,-5.663456,Scotland,0
LCS,Locheilside,56.855473,-5.290086,Scotland,0
LCG,Lochgelly,56.13538,-3.312958,Scotland,0
LCC,Lochluichart,57.621277,-4.809628,Scotland,0
LHW,Lochwinnoch,55.786549,-4.617038,Scotland,0
LOC,Lockerbie,55.123085,-3.353242,Scotland,0
LCK,Lockwood,53.635849,-1.800335,Yorkshire and The Humber,0
BFR,London Blackfriars,51.510735,-0.103554,London,1
LBG,London Bridge,51.505035,-0.085058,London,1
CST,London Cannon Street,51.510525,-0.090589,London,1
CHX,London Charing Cross,51.508362,-0.123835,London,1
EUS,London Euston,51.528313,-0.134545,London,1
FST,London Fenchurch Street,51.511234,-0.079039,London,1
LOF,London Fields,51.541454,-0.057574,London,0
KGX,London Kings Cross,51.530827,-0.122907,London,1
LST,London Liverpool Street,51.517551,-0.08021,London,1
MYB,London Marylebone,51.52248,-0.163605,London,1
PAD,London Paddington,51.516014,-0.176049,London,1
LRB,London Road (Brighton),50.836773,-0.136696,South East,0
LRD,London Road (Guildford),51.24067,-0.56506,South East,0
VIC,London Victoria,51.4966,-0.1448,London,1
WAT,London Waterloo,51.501865,-0.111126,London,1
LBK,Long Buckby,52.293964,-1.086469,East Midlands,0
LGE,Long Eaton,52.885105,-1.288114,East Midlands,0
LPR,Long Preston,54.017115,-2.254533,Yorkshire and The Humber,0
LGK,Longbeck,54.592896,-1.028041,North East,0
LOB,Longbridge,52.396385,-1.980861,West Midlands,0
LNG,Longcross,51.384556,-0.594536,South East,0
LGF,Longfield,51.396496,0.299994,South East,0
LND,Longniddry,55.976524,-2.889308,Scotland,0
LPT,Longport,53.041656,-2.21623,West Midlands,0
LGN,Longton,52.990013,-2.137216,West Midlands,0
LOO,Looe,50.359234,-4.456029,South West,0
LOT,Lostock,53.572969,-2.494276,North West,0
LTG,Lostock Gralam,53.267677,-2.465197,North West,0
LOH,Lostock Hall,53.724316,-2.687069,North West,0
LOS,Lostwithiel,50.40744,-4.665497,South West,0
LBO,Loughborough,52.779327,-1.194952,East Midlands,0
LGJ,Loughborough Junction,51.46666,-0.102499,London,0
LMR,Low Moor,53.74924,-1.750517,Yorkshire and The Humber,0
LOW,Lowdham,53.007072,-0.998465,East Midlands,0
LSY,Lower Sydenham,51.425056,-0.033746,London,0
LWT,Lowestoft,52.473618,1.749009,East of England,0
LUD,Ludlow,52.370853,-2.715275,West Midlands,0
LUT,Luton,51.882233,-0.414881,East of England,0
LTN,Luton Airport Parkway,51.871159,-0.393485,East of England,0
LUX,Luxulyan,50.390244,-4.747551,South West,0
LYD,Lydney,51.714584,-2.531189,South West,0
LYP,Lymington Pier,50.758083,-1.529275,South East,0
LYT,Lymington Town,50.760818,-1.537753,South East,0
LYC,Lympstone Commando,50.661121,-3.438876,South West,0
LYM,Lympstone Village,50.648621,-3.431419,South West,0
LTM,Lytham,53.739101,-2.964206,North West,0
MAC,Macclesfield,53.259331,-2.121397,North West,0
MCN,Machynlleth,52.595844,-3.854311,Wales,0
MEW,Maesteg (Ewenny Road),51.605297,-3.649038,Wales,0
MST,Maesteg,51.610607,-3.655003,Wales,0
MAG,Maghull,53.506464,-2.930828,North West,0
MNS,Maghull North,53.5167,-2.9213,North West,0
MDN,Maiden Newton,50.780128,-2.568749,South West,0
MAI,Maidenhead,51.518601,-0.722464,South East,0
MDB,Maidstone Barracks,51.277288,0.514148,South East,0
MDE,Maidstone East,51.277729,0.520618,South East,0
MDW,Maidstone West,51.270943,0.515975,South East,0
MAL,Malden Manor,51.384579,-0.261118,London,0
MLG,Mallaig,57.005497,-5.8306,Scotland,0
MLT,Malton,54.13155,-0.798593,Yorkshire and The Humber,0
MVL,Malvern Link,52.12534,-2.31987,West Midlands,0
MIA,Manchester Airport,53.361568,-2.268941,North West,0
MCO,Manchester Oxford Road,53.47398,-2.242531,North West,0
MAN,Manchester Piccadilly,53.476704,-2.228991,North West,1
MCV,Manchester Victoria,53.487465,-2.242607,North West,0
MNE,Manea,52.497692,0.178779,East of England,0
MNG,Manningtree,51.948818,1.045653,East of England,0
MNP,Manor Park,51.552296,0.045309,London,0
MNR,Manor Road,53.394772,-3.171468,North West,0
MRB,Manorbier,51.660114,-4.7919,Wales,0
MAS,Manors,54.972698,-1.606296,North East,0
MFT,Mansfield,53.142232,-1.198192,East Midlands,0
MSW,Mansfield Woodhouse,53.1636,-1.201651,East Midlands,0
MCH,March,52.560432,0.090409,East of England,0
MAR,Margate,51.384926,1.371737,South East,0
MHR,Market Harborough,52.480366,-0.908868,East Midlands,0
MKR,Market Rasen,53.384441,-0.337075,East Midlands,0
MNC,Markinch,56.200069,-3.131414,Scotland,0
MKT,Marks Tey,51.880695,0.782372,East of England,0
MLW,Marlow,51.570995,-0.766452,South East,0
MPL,Marple,53.400763,-2.057168,North West,0
MSK,Marske,54.587433,-1.018892,North East,0
MGN,Marston Green,52.467159,-1.755616,West Midlands,0
MTM,Martin Mill,51.170593,1.348907,South East,0
MAO,Martins Heron,51.406689,-0.720386,South East,0
MTO,Marton,54.543808,-1.197708,North East,0
MYH,Maryhill,55.898026,-4.301396,Scotland,0
MYL,Maryland,51.545784,0.006075,London,0
MRY,Maryport,54.711597,-3.494738,North West,0
MTB,Matlock Bath,53.121941,-1.55766,East Midlands,0
MAT,Matlock,53.138126,-1.558988,East Midlands,0
MAU,Mauldeth Road,53.432984,-2.209325,North West,0
MAX,Maxwell Park,55.837124,-4.289813,Scotland,0
MAY,Maybole,55.354485,-4.686269,Scotland,0
MZH,Maze Hill,51.482883,0.003311,London,0
MHS,Meadowhall,53.417046,-1.411669,Yorkshire and The Humber,0
MEL,Meldreth,52.090687,0.00853,East of England,0
MKM,Melksham,51.379803,-2.14449,South West,0
MMO,Melton Mowbray,52.760643,-0.885564,East Midlands,0
MEN,Menheniot,50.426183,-4.40938,South West,0
MNN,Menston,53.891895,-1.735205,Yorkshire and The Humber,0
MEO,Meols,53.399356,-3.15431,North West,0
MEC,Meols Cop,53.645519,-2.975696,North West,0
MEP,Meopham,51.386368,0.356977,South East,0
MRW,Meridian Water,51.61,-0.0501,London,0
MEY,Merryton,55.749013,-3.978667,Scotland,0
MHM,Merstham,51.264164,-0.149555,South East,0
MER,Merthyr Tydfil,51.745476,-3.377458,Wales,0
MEV,Merthyr Vale,51.686607,-3.336622,Wales,0
MGM,Metheringham,53.138866,-0.391421,East Midlands,0
MEX,Mexborough,53.490986,-1.28855,Yorkshire and The Humber,0
MIC,Micheldever,51.182034,-1.260283,South East,0
MIK,Micklefield,53.788715,-1.324507,Yorkshire and The Humber,0
MBR,Middlesbrough,54.579086,-1.232596,North East,0
MDL,Middlewood,53.359142,-2.084111,North West,0
MDG,Midgham,51.395805,-1.177683,South East,0
MLF,Milford (Surrey),51.163849,-0.63701,South East,0
MFH,Milford Haven,51.715977,-5.041485,Wales,0
MIL,Mill Hill Broadway,51.612823,-0.249522,London,0
MLB,Millbrook (Bedfordshire),52.053822,-0.532724,East of England,0
MBK,Millbrook (Hants),50.911434,-1.433848,South East,0
MIN,Milliken Park,55.825157,-4.533405,Scotland,0
MLM,Millom,54.210831,-3.271108,North West,0
MLN,Milngavie,55.94091,-4.315152,Scotland,0
MKC,Milton Keynes Central,52.034357,-0.77341,South East,0
MFF,Minffordd,52.926464,-4.085625,Wales,0
MSR,Minster,51.329807,1.317431,South East,0
MIR,Mirfield,53.671577,-1.692696,Yorkshire and The Humber,0
MIS,Mistley,51.943417,1.080205,East of England,0
MTC,Mitcham Eastfields,51.407725,-0.154764,London,0
MIJ,Mitcham Junction,51.392887,-0.157308,London,0
MOB,Mobberley,53.329941,-2.333309,North West,0
MON,Monifieth,56.480167,-2.818249,Scotland,0
MRS,Monks Risborough,51.735134,-0.829882,South East,0
MTP,Montpelier,51.468205,-2.588525,South West,0
MTS,Montrose,56.71286,-2.47207,Scotland,0
MRF,Moorfields,53.408534,-2.989182,North West,0
MOG,Moorgate,51.5186,-0.09027,London,1
MSD,Moorside,53.516354,-2.35146,North West,0
MRP,Moorthorpe,53.594452,-1.304952,Yorkshire and The Humber,0
MRR,Morar,56.969788,-5.821991,Scotland,0
MRD,Morchard Road,50.831841,-3.776424,South West,0
MDS,Morden South,51.396248,-0.200299,London,0
MCM,Morecambe,54.070322,-2.869379,North West,0
MTN,Moreton (Dorset),50.701057,-2.312914,South West,0
MRT,Moreton (Merseyside),53.407917,-3.113156,North West,0
MIM,Moreton-In-Marsh,51.992336,-1.7014,South West,0
MFA,Morfa Mawddach,52.7071,-4.032224,Wales,0
MLY,Morley,53.75037,-1.592033,Yorkshire and The Humber,0
MPT,Morpeth,55.162537,-1.682903,North East,0
MOR,Mortimer,51.371941,-1.035979,South East,0
MTL,Mortlake,51.468288,-0.266575,London,0
MSS,Moses Gate,53.55604,-2.400931,North West,0
MOS,Moss Side,53.764431,-2.943548,North West,0
MSH,Mossley Hill,53.379025,-2.915464,North West,0
MPK,Mosspark,55.838947,-4.336232,Scotland,0
MSO,Moston,53.52264,-2.171925,North West,0
MTH,Motherwell,55.791927,-3.995234,Scotland,0
MOT,Motspur Park,51.395042,-0.23916,London,0
MTG,Mottingham,51.439804,0.050353,London,0
DBG,Mottisfont & Dunbridge,51.033987,-1.546942,South East,0
MLD,Mouldsworth,53.231976,-2.732546,North West,0
MCB,Moulsecoomb,50.844616,-0.12076,South East,0
MFL,Mount Florida,55.826859,-4.262067,Scotland,0
MTV,Mount Vernon,55.839882,-4.136638,Scotland,0
MTA,Mountain Ash,51.683422,-3.378478,Wales,0
MUI,Muirend,55.810459,-4.273888,Scotland,0
MUB,Musselburgh,55.930225,-3.062719,Scotland,0
MYT,Mytholmroyd,53.729496,-1.981773,Yorkshire and The Humber,0
NFN,Nafferton,54.011684,-0.386948,Yorkshire and The Humber,0
NLS,Nailsea & Backwell,51.419357,-2.750661,South West,0
NRN,Nairn,57.580227,-3.873024,Scotland,0
NAN,Nantwich,53.063533,-2.518868,North West,0
NAR,Narberth,51.800156,-4.726567,Wales,0
NBR,Narborough,52.571712,-1.20318,East Midlands,0
NVR,Navigation Road,53.395412,-2.3435,North West,0
NTH,Neath,51.662315,-3.807267,Wales,0
NMT,Needham Market,52.156437,1.051047,East of England,0
NEI,Neilston,55.782364,-4.426945,Scotland,0
NEL,Nelson,53.834469,-2.214223,North West,0
NES,Neston,53.292419,-3.063769,North West,0
NET,Netherfield,52.960972,-1.078427,East Midlands,0
NRT,Nethertown,54.456699,-3.566201,North West,0
NTL,Netley,50.874977,-1.341913,South East,0
NBA,New Barnet,51.648521,-0.172972,London,0
NBC,New Beckenham,51.416988,-0.035525,London,0
NBN,New Brighton,53.43726,-3.049191,North West,0
NCE,New Clee,53.574455,-0.060771,Yorkshire and The Humber,0
NXG,New Cross Gate,51.475544,-0.041655,London,0
NWX,New Cross,51.476299,-0.032984,London,0
NCK,New Cumnock,55.402271,-4.182457,Scotland,0
NEH,New Eltham,51.437649,0.0704,London,0
NHL,New Holland,53.702106,-0.360936,Yorkshire and The Humber,0
NHE,New Hythe,51.312401,0.455075,South East,0
NLN,New Lane,53.611298,-2.86758,North West,0
NEM,New Malden,51.403393,-0.256084,London,0
NMC,New Mills Central,53.364567,-2.007485,East Midlands,0
NMN,New Mills Newtown,53.359169,-2.00898,East Midlands,0
NWM,New Milton,50.755836,-1.658313,South East,0
NPD,New Pudsey,53.804573,-1.679581,Yorkshire and The Humber,0
NSG,New Southgate,51.613876,-0.142586,London,0
NCT,Newark Castle,53.079987,-0.813151,East Midlands,0
NBE,Newbridge,51.665686,-3.142116,Wales,0
NRC,Newbury Racecourse,51.39814,-1.308549,South East,0
NBY,Newbury,51.397599,-1.322608,South East,0
NCL,Newcastle,54.968243,-1.617264,North East,1
NCO,Newcourt,50.705418,-3.47259,South West,0
NEW,Newcraighall,55.932619,-3.091582,Scotland,0
NVH,Newhaven Harbour,50.790398,0.054433,South East,0
NVN,Newhaven Town,50.794888,0.054627,South East,0
NGT,Newington,51.353733,0.66269,South East,0
NMK,Newmarket,52.237904,0.406249,East of England,0
NWE,Newport (Essex),51.97995,0.216176,East of England,0
NQY,Newquay,50.415245,-5.075769,South West,0
NSD,Newstead,53.069961,-1.222036,East Midlands,0
NTA,Newton Abbot,50.529507,-3.599957,South West,0
NAY,Newton Aycliffe,54.613171,-1.5881,North East,0
NTC,Newton St Cyres,50.77879,-3.588594,South West,0
NEG,Newtongrange,55.865652,-3.066151,Scotland,0
NLW,Newton-Le-Willows,53.452873,-2.614369,North West,0
NWR,Newtonmore,57.059673,-4.118831,Scotland,0
NOA,Newton-On-Ayr,55.473541,-4.62632,Scotland,0
NWT,Newtown (Powys),52.512291,-3.311432,Wales,0
NNP,Ninian Park,51.475861,-3.200846,Wales,0
NIT,Nitshill,55.811531,-4.360126,Scotland,0
NBT,Norbiton,51.411907,-0.284525,London,0
NRB,Norbury,51.411236,-0.123492,London,0
NSB,Normans Bay,50.825382,0.389669,South East,0
NOR,Normanton,53.700249,-1.424378,Yorkshire and The Humber,0
NBW,North Berwick,56.057545,-2.728989,Scotland,0
NCM,North Camp,51.275517,-0.731195,South East,0
NDL,North Dulwich,51.454712,-0.087163,London,0
NFA,North Fambridge,51.64859,0.681703,East of England,0
NLR,North Llanrwst,53.141348,-3.792723,Wales,0
NQU,North Queensferry,56.013168,-3.395426,Scotland,0
NSH,North Sheen,51.464977,-0.285423,London,0
NWA,North Walsham,52.817383,1.385142,East of England,0
NWB,North Wembley,51.562355,-0.303394,London,0
NTR,Northallerton,54.333084,-1.441718,Yorkshire and The Humber,0
NMP,Northampton,52.237433,-0.906689,East Midlands,0
NFD,Northfield,52.408073,-1.96469,West Midlands,0
NLT,Northolt Park,51.557762,-0.359827,London,0
NUM,Northumberland Park,51.601643,-0.053558,London,0
NWI,Northwich,53.261414,-2.496815,North West,0
NRW,Norwich,52.627121,1.306879,East of England,1
NWD,Norwood Junction,51.396965,-0.075201,London,0
NOT,Nottingham,52.946905,-1.146441,East Midlands,1
NUN,Nuneaton,52.526436,-1.463431,West Midlands,0
NHD,Nunhead,51.466747,-0.053546,London,0
NNT,Nunthorpe,54.528347,-1.170195,North East,0
NUT,Nutbourne,50.846313,-0.883508,South East,0
NUF,Nutfield,51.22702,-0.132425,South East,0
OKN,Oakengates,52.693104,-2.451245,West Midlands,0
OKM,Oakham,52.671913,-0.734019,East Midlands,0
OKL,Oakleigh Park,51.637627,-0.166189,London,0
OBN,Oban,56.411758,-5.473841,Scotland,0
OCK,Ockendon,51.521687,0.290439,East of England,0
OLY,Ockley,51.150955,-0.335692,South East,0
OKE,Okehampton,50.731679,-3.988267,South West,0
OHL,Old Hill,52.470993,-2.055913,West Midlands,0
ORN,Old Roan,53.486871,-2.951095,North West,0
OLD,Old Street,51.525776,-0.088515,London,0
OLF,Oldfield Park,51.37978,-2.380742,South West,0
OLT,Olton,52.43848,-1.804313,West Midlands,0
ORE,Ore,50.866959,0.590783,South East,0
OMS,Ormskirk,53.569014,-2.881615,North West,0
ORP,Orpington,51.373463,0.089049,London,0
ORR,Orrell,53.530548,-2.709028,North West,0
OPK,Orrell Park,53.461991,-2.962908,North West,0
OTF,Otford,51.312141,0.196757,South East,0
OUN,Oulton Broad North,52.478226,1.716998,East of England,0
OUS,Oulton Broad South,52.469528,1.707425,East of England,0
OUT,Outwood,53.714115,-1.512068,Yorkshire and The Humber,0
OVE,Overpool,53.284155,-2.924788,North West,0
OVR,Overton,51.253971,-1.25913,South East,0
OXN,Oxenholme Lake District,54.305169,-2.722249,North West,0
OXF,Oxford,51.753549,-1.270037,South East,0
OXP,Oxford Parkway,51.8042,-1.2745,South East,0
OXS,Oxshott,51.336578,-0.361993,South East,0
OXT,Oxted,51.257298,-0.005075,South East,0
PDW,Paddock Wood,51.182453,0.389485,South East,0
PDG,Padgate,53.405514,-2.556521,North West,0
PGN,Paignton,50.434658,-3.564361,South West,0
PCN,Paisley Canal,55.840878,-4.422606,Scotland,0
PYG,Paisley Gilmour Street,55.848026,-4.424646,Scotland,0
PYJ,Paisley St James,55.852165,-4.442486,Scotland,0
PAL,Palmers Green,51.618736,-0.109164,London,0
PAN,Pangbourne,51.485231,-1.090522,South East,0
PNL,Pannal,53.958687,-1.533605,Yorkshire and The Humber,0
PTF,Pantyffynnon,51.778835,-3.997481,Wales,0
PAR,Par,50.355263,-4.704752,South West,0
PBL,Parbold,53.590856,-2.770679,North West,0
PKT,Park Street,51.725651,-0.340727,East of England,0
PKS,Parkstone (Dorset),50.723049,-1.94897,South West,0
PSN,Parson Street,51.432758,-2.60991,South West,0
PTK,Partick,55.869987,-4.310921,Scotland,0
PRN,Parton,54.569795,-3.580867,North West,0
PWY,Patchway,51.52578,-2.562647,South West,0
PAT,Patricroft,53.484745,-2.357919,North West,0
PTT,Patterton,55.790443,-4.334935,Scotland,0
PEA,Peartree,52.89684,-1.473198,East Midlands,0
PMR,Peckham Rye,51.470585,-0.067782,London,0
PEG,Pegswood,55.178616,-1.64509,North East,0
PEM,Pemberton,53.530427,-2.670225,North West,0
PBY,Pembrey & Burry Port,51.683487,-4.247899,Wales,0
PMD,Pembroke Dock,51.69434,-4.93729,Wales,0
PMB,Pembroke,51.673546,-4.905563,Wales,0
PNA,Penally,51.65905,-4.72243,Wales,0
PEN,Penarth,51.435669,-3.173908,Wales,0
PCD,Pencoed,51.524567,-3.50053,Wales,0
PGM,Pengam,51.670681,-3.230578,Wales,0
PNE,Penge East,51.419125,-0.055566,London,0
PNW,Penge West,51.417419,-0.061402,London,0
PHG,Penhelig,52.545212,-4.035051,Wales,0
PNS,Penistone,53.525757,-1.62134,Yorkshire and The Humber,0
PKG,Penkridge,52.723611,-2.119447,West Midlands,0
PMW,Penmaenmawr,53.270635,-3.923514,Wales,0
PNM,Penmere,50.149736,-5.083108,South West,0
PER,Penrhiwceiber,51.671906,-3.363662,Wales,0
PRH,Penrhyndeudraeth,52.928623,-4.064905,Wales,0
PHR,Penshurst,51.197449,0.174125,South East,0
PTB,Pentre-Bach,51.724976,-3.362362,Wales,0
PNC,Penychain,52.903,-4.33845,Wales,0
PNF,Penyffordd,53.143253,-3.055472,Wales,0
PNZ,Penzance,50.12162,-5.532489,South West,0
PRW,Perranwell,50.216431,-5.111868,South West,0
PRY,Perry Barr,52.516361,-1.90196,West Midlands,0
PSH,Pershore,52.130249,-2.071555,West Midlands,0
PTH,Perth,56.39275,-3.440068,Scotland,1
PBO,Peterborough,52.574947,-0.24981,East of England,1
PTR,Petersfield,51.006924,-0.940951,South East,0
PET,Petts Wood,51.388996,0.075393,London,0
PEV,Pevensey & Westham,50.815899,0.325291,South East,0
PEB,Pevensey Bay,50.818249,0.342453,South East,0
PEW,Pewsey,51.342411,-1.771691,South West,0
PIL,Pilning,51.556502,-2.627192,South West,0
PIN,Pinhoe,50.738079,-3.469582,South West,0
PIT,Pitlochry,56.70256,-3.736085,Scotland,0
PSE,Pitsea,51.560387,0.508806,East of England,0
PLS,Pleasington,53.730961,-2.544142,North West,0
PLK,Plockton,57.333172,-5.666848,Scotland,0
PLC,Pluckley,51.156578,0.748571,South East,0
PLM,Plumley,53.274809,-2.419615,North West,0
PMP,Plumpton,50.929066,-0.060435,South East,0
PLU,Plumstead,51.48959,0.082828,London,0
PLY,Plymouth,50.377762,-4.143386,South West,0
POK,Pokesdown,50.731022,-1.82568,South West,0
PLG,Polegate,50.820934,0.251705,South East,0
PSW,Polesworth,52.625893,-1.60995,West Midlands,0
PWE,Pollokshaws East,55.824589,-4.287476,Scotland,0
PWW,Pollokshaws West,55.824318,-4.301826,Scotland,0
PLE,Pollokshields East,55.841103,-4.269287,Scotland,0
PLW,Pollokshields West,55.83736,-4.277043,Scotland,0
PMT,Polmont,55.984856,-3.716614,Scotland,0
POL,Polsloe Bridge,50.731274,-3.501785,South West,0
PON,Ponders End,51.642693,-0.034453,London,0
PTD,Pontarddulais,51.716866,-4.045417,Wales,0
PFR,Pontefract Baghill,53.691517,-1.303355,Yorkshire and The Humber,0
PFM,Pontefract Monkhill,53.698711,-1.304749,Yorkshire and The Humber,0
POT,Pontefract Tanshelf,53.694313,-1.319964,Yorkshire and The Humber,0
PLT,Pontlottyn,51.74659,-3.278995,Wales,0
PYC,Pontyclun,51.524113,-3.390959,Wales,0
PPD,Pontypridd,51.599312,-3.342715,Wales,0
POO,Poole,50.718559,-1.982964,South West,0
POP,Poppleton,53.976345,-1.147657,Yorkshire and The Humber,0
PTG,Port Glasgow,55.9342,-4.689432,Scotland,0
PSL,Port Sunlight,53.349123,-2.998248,North West,0
PTA,Port Talbot Parkway,51.591671,-3.781362,Wales,0
PTC,Portchester,50.848389,-1.126361,South East,0
POR,Porth,51.61203,-3.408079,Wales,0
PTM,Porthmadog,52.930954,-4.136431,Wales,0
PLN,Portlethen,57.060455,-2.128577,Scotland,0
PLD,Portslade,50.836044,-0.204898,South East,0
PMS,Portsmouth & Southsea,50.797756,-1.090417,South East,0
PMA,Portsmouth Arms,50.956768,-3.950633,South West,0
PMH,Portsmouth Harbour,50.796097,-1.108895,South East,0
PPK,Possilpark & Parkhouse,55.890717,-4.259381,Scotland,0
PBR,Potters Bar,51.697392,-0.192715,East of England,0
PFY,Poulton-Le-Fylde,53.848128,-2.990212,North West,0
PYT,Poynton,53.350398,-2.13448,North West,0
PRS,Prees,52.89962,-2.689765,West Midlands,0
PSC,Prescot,53.423535,-2.799022,North West,0
PRT,Prestatyn,53.336491,-3.407164,Wales,0
PRB,Prestbury,53.293465,-2.14549,North West,0
PRP,Preston Park,50.846054,-0.154787,South East,0
PST,Prestonpans,55.953426,-2.973665,Scotland,0
PRA,Prestwick International Airport,55.511513,-4.616166,Scotland,0
PTW,Prestwick Town,55.501675,-4.613935,Scotland,0
PTL,Priesthill & Darnley,55.812737,-4.344246,Scotland,0
PRR,Princes Risborough,51.717697,-0.844059,South East,0
PRL,Prittlewell,51.550476,0.71167,East of England,0
PRU,Prudhoe,54.966072,-1.864077,North East,0
PUL,Pulborough,50.957355,-0.517751,South East,0
PFL,Purfleet,51.481358,0.236575,East of England,0
PUO,Purley Oaks,51.346989,-0.098843,London,0
PUR,Purley,51.337334,-0.113592,London,0
PUT,Putney,51.46125,-0.216463,London,0
PWL,Pwllheli,52.887825,-4.416754,Wales,0
PYE,Pye Corner,51.579513,-3.038295,Wales,0
PYL,Pyle,51.527199,-3.702439,Wales,0
QYD,Quakers Yard,51.660686,-3.322844,Wales,0
QBR,Queenborough,51.416473,0.749756,South East,0
QPK,Queens Park (Glasgow),55.835747,-4.267368,Scotland,0
QPW,Queens Park (London),51.533916,-0.204966,London,0
QRB,Queenstown Road (Battersea),51.474552,-0.146819,London,0
QUI,Quintrell Downs,50.403908,-5.029838,South West,0
RDT,Radlett,51.68486,-0.317626,East of England,0
RAD,Radley,51.685588,-1.240398,South East,0
RDR,Radyr,51.515831,-3.248028,Wales,0
RNF,Rainford,53.51694,-2.789454,North West,0
RNM,Rainham (Essex),51.517449,0.190716,London,0
RAI,Rainham (Kent),51.36657,0.611698,South East,0
RNH,Rainhill,53.417129,-2.766398,North West,0
RAM,Ramsgate,51.340767,1.405833,South East,0
RGW,Ramsgreave & Wilpshire,53.787868,-2.47657,North West,0
RAN,Rannoch,56.685318,-4.576208,Scotland,0
RAU,Rauceby,52.985081,-0.455247,East Midlands,0
RAV,Ravenglass for Eskdale,54.355804,-3.409456,North West,0
RVB,Ravensbourne,51.413803,-0.0069,London,0
RVN,Ravensthorpe,53.675964,-1.653298,Yorkshire and The Humber,0
RWC,Rawcliffe,53.688141,-0.961174,Yorkshire and The Humber,0
RLG,Rayleigh,51.589851,0.601393,East of England,0
RAY,Raynes Park,51.409294,-0.22998,London,0
RDG,Reading,51.458767,-0.972172,South East,0
RDW,Reading West,51.455077,-0.990143,South East,0
REC,Rectory Road,51.55872,-0.068379,London,0
RDB,Redbridge,50.919697,-1.470737,South East,0
RCC,Redcar Central,54.615692,-1.069318,North East,0
RCE,Redcar East,54.609257,-1.05088,North East,0
RDN,Reddish North,53.448956,-2.15656,North West,0
RDS,Reddish South,53.435873,-2.159028,North West,0
RDC,Redditch,52.306337,-1.945248,West Midlands,0
RDH,Redhill,51.240124,-0.164851,South East,0
RDA,Redland,51.468792,-2.598875,South West,0
RED,Redruth,50.233111,-5.225877,South West,0
RHM,Reedham (London),51.332108,-0.123854,London,0
REE,Reedham (Norfolk),52.564045,1.558941,East of England,0
REI,Reigate,51.241623,-0.203474,South East,0
RTN,Renton,55.970566,-4.586181,Scotland,0
RET,Retford,53.315872,-0.94772,East Midlands,0
RHI,Rhiwbina,51.520687,-3.213561,Wales,0
RHO,Rhosneigr,53.234782,-4.505768,Wales,0
RHL,Rhyl,53.318409,-3.489144,Wales,0
RHY,Rhymney,51.759064,-3.289494,Wales,0
RHD,Ribblehead,54.205776,-2.36087,Yorkshire and The Humber,0
RIL,Rice Lane,53.457738,-2.962253,North West,0
RIC,Rickmansworth,51.640447,-0.473013,East of England,0
RDD,Riddlesdown,51.332611,-0.099436,London,0
RID,Ridgmont,52.026588,-0.594903,East of England,0
RDM,Riding Mill,54.949066,-1.97186,North East,0
RCA,Risca & Pontymister,51.60443,-3.093533,Wales,0
RIS,Rishton,53.763813,-2.420165,North West,0
RBR,Robertsbridge,50.984726,0.469092,South East,0
RRN,Robroyston,55.887581,-4.172291,Scotland,0
ROB,Roby,53.410034,-2.855956,North West,0
RCD,Rochdale,53.610293,-2.153444,North West,0
ROC,Roche,50.418911,-4.830658,South West,0
RTR,Rochester,51.384968,0.510698,South East,0
RFD,Rochford,51.581276,0.701959,East of England,0
RFY,Rock Ferry,53.372269,-3.010898,North West,0
ROG,Rogart,57.988979,-4.158224,Scotland,0
ROR,Rogerstone,51.593413,-3.065478,Wales,0
ROL,Rolleston,53.065536,-0.900095,East Midlands,0
RMB,Roman Bridge,53.044319,-3.92125,Wales,0
RMF,Romford,51.575016,0.181986,London,0
RML,Romiley,53.414026,-2.089307,North West,0
ROM,Romsey,50.992641,-1.492716,South East,0
ROO,Roose,54.115157,-3.19457,North West,0
RSG,Rose Grove,53.786686,-2.282282,North West,0
RSH,Rose Hill Marple,53.396176,-2.076502,North West,0
ROS,Rosyth,56.046055,-3.427114,Scotland,0
RMC,Rotherham Central,53.429356,-1.358811,Yorkshire and The Humber,0
ROE,Rotherhithe,51.50098,-0.05353,London,0
RNR,Roughton Road,52.917828,1.299239,East of England,0
RLN,Rowlands Castle,50.892864,-0.957748,South East,0
ROW,Rowley Regis,52.477299,-2.030885,West Midlands,0
RYB,Roy Bridge,56.888184,-4.83645,Scotland,0
RYN,Roydon,51.775494,0.035088,East of England,0
RYS,Royston,52.053509,-0.026686,East of England,0
RUA,Ruabon,52.986935,-3.044214,Wales,0
RUF,Rufford,53.634817,-2.806792,North West,0
RUG,Rugby,52.378719,-1.249263,West Midlands,0
RGT,Rugeley Town,52.754672,-1.936963,West Midlands,0
RGL,Rugeley Trent Valley,52.769451,-1.930309,West Midlands,0
RUN,Runcorn,53.338696,-2.73919,North West,0
RUE,Runcorn East,53.326929,-2.665102,North West,0
RKT,Ruskington,53.041615,-0.380127,East Midlands,0
RUS,Ruswarp,54.470367,-0.626664,Yorkshire and The Humber,0
RUT,Rutherglen,55.830448,-4.212766,Scotland,0
RYD,Ryde Esplanade,50.733517,-1.159676,South East,0
RYP,Ryde Pier Head,50.738914,-1.159578,South East,0
RYR,Ryde St Johns Road,50.72361,-1.157028,South East,0
RRB,Ryder Brow,53.457916,-2.176173,North West,0
RYH,Rye House,51.76881,0.005796,East of England,0
SFD,Salford Central,53.482913,-2.254686,North West,0
SLD,Salford Crescent,53.486462,-2.275715,North West,0
SAH,Salhouse,52.675083,1.391886,East of England,0
SAL,Salisbury,51.070915,-1.805864,South West,0
SAE,Saltaire,53.838066,-1.790246,Yorkshire and The Humber,0
STS,Saltash,50.407108,-4.209449,South West,0
SLB,Saltburn,54.583462,-0.974116,North East,0
SLT,Saltcoats,55.633648,-4.784804,Scotland,0
SAM,Saltmarshe,53.722675,-0.808765,Yorkshire and The Humber,0
SLW,Salwick,53.781536,-2.817973,North West,0
SNA,Sandal & Agbrigg,53.664574,-1.485404,Yorkshire and The Humber,0
SDB,Sandbach,53.150113,-2.393528,North West,0
SNR,Sanderstead,51.348694,-0.093017,London,0
SDL,Sandhills,53.430021,-2.9915,North West,0
SDG,Sandling,51.09021,1.065995,South East,0
SAN,Sandown,50.657101,-1.162457,South East,0
SDP,Sandplace,50.386684,-4.464549,South West,0
SAD,Sandwell & Dudley,52.508431,-2.011281,West Midlands,0
SDW,Sandwich,51.269711,1.343208,South East,0
SDY,Sandy,52.124931,-0.28065,East of England,0
SQH,Sanquhar,55.370633,-3.923437,Scotland,0
SRR,Sarn,51.540049,-3.589196,Wales,0
SDF,Saundersfoot,51.722084,-4.718965,Wales,0
SDR,Saunderton,51.675751,-0.825626,South East,0
SAW,Sawbridgeworth,51.814625,0.160177,East of England,0
SXY,Saxilby,53.267193,-0.664018,East Midlands,0
SAX,Saxmundham,52.215309,1.489965,East of England,0
SCA,Scarborough,54.2798,-0.405666,Yorkshire and The Humber,0
SCT,Scotscalder,58.482891,-3.553764,Scotland,0
SCH,Scotstounhill,55.884491,-4.351765,Scotland,0
SCU,Scunthorpe,53.58617,-0.650951,Yorkshire and The Humber,0
SML,Sea Mills,51.480209,-2.649427,South West,0
SFL,Seaforth & Litherland,53.466336,-3.005619,North West,0
SEA,Seaham,54.836835,-1.341019,North East,0
SEM,Seamer,54.241287,-0.416367,Yorkshire and The Humber,0
SSC,Seascale,54.395351,-3.48476,North West,0
SEC,Seaton Carew,54.657959,-1.200106,North East,0
SRG,Seer Green & Jordans,51.609524,-0.607809,South East,0
SBY,Selby,53.78336,-1.06355,Yorkshire and The Humber,0
SRS,Selhurst,51.392704,-0.089759,London,0
SEL,Sellafield,54.416571,-3.510293,North West,0
SEG,Selling,51.277817,0.940801,South East,0
SLY,Selly Oak,52.441322,-1.936708,West Midlands,0
SET,Settle,54.066897,-2.280704,Yorkshire and The Humber,0
SVK,Seven Kings,51.563992,0.096325,London,0
SVS,Seven Sisters,51.584007,-0.074521,London,0
SEV,Sevenoaks,51.27734,0.182193,South East,0
SVB,Severn Beach,51.559864,-2.664227,South West,0
STJ,Severn Tunnel Junction,51.584629,-2.777917,Wales,0
SDE,Shadwell,51.51093,-0.05743,London,0
SHN,Shanklin,50.633842,-1.179841,South East,0
SFI,Shawfair,55.91993,-3.07872,Scotland,0
SHW,Shawford,51.021488,-1.328428,South East,0
SHL,Shawlands,55.828987,-4.292521,Scotland,0
SSS,Sheerness-On-Sea,51.440559,0.758397,South East,0
SHF,Sheffield,53.378639,-1.463297,Yorkshire and The Humber,1
SNF,Shenfield,51.630615,0.330602,East of England,0
SEN,Shenstone,52.638985,-1.844528,West Midlands,0
SPH,Shepherds Well,51.188339,1.229952,South East,0
SPY,Shepley,53.588913,-1.703863,Yorkshire and The Humber,0
SHP,Shepperton,51.397091,-0.447521,South East,0
STH,Shepreth,52.114567,0.031517,East of England,0
SHE,Sherborne,50.94405,-2.513816,South West,0
SIE,Sherburn-In-Elmet,53.797142,-1.23176,Yorkshire and The Humber,0
SHM,Sheringham,52.94096,1.210195,East of England,0
SLS,Shettleston,55.852959,-4.159731,Scotland,0
SDM,Shieldmuir,55.775532,-3.952944,Scotland,0
SFN,Shifnal,52.666405,-2.371116,West Midlands,0
SHD,Shildon,54.626816,-1.637515,North East,0
SHI,Shiplake,51.51121,-0.882452,South East,0
SPP,Shippea Hill,52.430218,0.412299,East of England,0
SIP,Shipton,51.866131,-1.591864,South East,0
SHB,Shirebrook,53.20369,-1.201995,East Midlands,0
SHH,Shirehampton,51.484216,-2.679162,South West,0
SRO,Shireoaks,53.32481,-1.16821,East Midlands,0
SRL,Shirley,52.403473,-1.845632,West Midlands,0
SRY,Shoeburyness,51.531414,0.795616,East of England,0
SHO,Sholing,50.896687,-1.36436,South East,0
SDC,Shoreditch High Street,51.523433,-0.075614,London,0
SEH,Shoreham (Kent),51.332092,0.187665,South East,0
SSE,Shoreham-By-Sea,50.834358,-0.271709,South East,0
SRT,Shortlands,51.405548,0.002798,London,0
SHT,Shotton,53.21352,-3.037728,Wales,0
SHS,Shotts,55.818302,-3.80024,Scotland,0
SHR,Shrewsbury,52.711369,-2.74897,West Midlands,1
SID,Sidcup,51.434361,0.103342,London,0
SIL,Sileby,52.731595,-1.109979,East Midlands,0
SIC,Silecroft,54.225966,-3.334281,North West,0
SLK,Silkstone Common,53.537239,-1.560883,Yorkshire and The Humber,0
SLV,Silver Street,51.615364,-0.067415,London,0
SVR,Silverdale,54.169922,-2.804164,North West,0
SIN,Singer,55.907711,-4.405983,Scotland,0
SIT,Sittingbourne,51.342201,0.733817,South East,0
SKG,Skegness,53.143032,0.333926,East Midlands,0
SKE,Skewen,51.660789,-3.847692,Wales,0
SKI,Skipton,53.958691,-2.025878,Yorkshire and The Humber,0
SGR,Slade Green,51.466957,0.189792,London,0
SWT,Slaithwaite,53.624275,-1.87901,Yorkshire and The Humber,0
SLA,Slateford,55.926731,-3.243476,Scotland,0
SLR,Sleaford,52.995274,-0.410174,East Midlands,0
SLH,Sleights,54.46088,-0.66246,Yorkshire and The Humber,0
SLO,Slough,51.511921,-0.591803,South East,0
SMA,Small Heath,52.46283,-1.858673,West Midlands,0
SAB,Smallbrook Junction,50.712822,-1.15721,South East,0
SGB,Smethwick Galton Bridge,52.501826,-1.980632,West Midlands,0
SMR,Smethwick Rolfe Street,52.49632,-1.969885,West Midlands,0
SMB,Smithy Bridge,53.633266,-2.113394,North West,0
SNI,Snaith,53.693192,-1.027678,Yorkshire and The Humber,0
SDA,Snodland,51.330521,0.448864,South East,0
SWO,Snowdown,51.214886,1.213187,South East,0
SOR,Sole Street,51.38327,0.376939,South East,0
SOL,Solihull,52.415081,-1.78972,West Midlands,0
SYT,Somerleyton,52.509892,1.653333,East of England,0
SAT,South Acton,51.499813,-0.269697,London,0
SBK,South Bank,54.582375,-1.186112,North East,0
SBM,South Bermondsey,51.487446,-0.054101,London,0
SCY,South Croydon,51.362194,-0.093903,London,0
SES,South Elmsall,53.595234,-1.285286,Yorkshire and The Humber,0
SGN,South Greenford,51.533339,-0.336403,London,0
SGL,South Gyle,55.936951,-3.298234,Scotland,0
SOH,South Hampstead,51.541424,-0.178759,London,0
SOK,South Kenton,51.56963,-0.308894,London,0
SMO,South Merton,51.40353,-0.205764,London,0
SOM,South Milford,53.781994,-1.251772,Yorkshire and The Humber,0
SRU,South Ruislip,51.556742,-0.398812,London,0
STO,South Tottenham,51.58036,-0.071788,London,0
SWS,South Wigston,52.582451,-1.132918,East Midlands,0
SOF,South Woodham Ferrers,51.64957,0.606512,East of England,0
STL,Southall,51.505884,-0.378513,London,0
SOA,Southampton Airport Parkway,50.950638,-1.36362,South East,0
SOU,Southampton Central,50.907742,-1.413983,South East,1
SOB,Southbourne,50.848343,-0.907601,South East,0
SBU,Southbury,51.648396,-0.052998,London,0
SEE,Southease,50.831284,0.03066,South East,0
SIA,Southend Airport,51.5687,0.704084,East of England,0
SOC,Southend Central,51.536972,0.712305,East of England,0
SOE,Southend East,51.539234,0.731196,East of England,0
SOV,Southend Victoria,51.542389,0.711184,East of England,0
SMN,Southminster,51.660873,0.835397,East of England,0
SOP,Southport,53.646597,-3.002229,North West,0
SWK,Southwick,50.832928,-0.236254,South East,0
SOW,Sowerby Bridge,53.707886,-1.90756,Yorkshire and The Humber,0
SPA,Spalding,52.788418,-0.156722,East Midlands,0
SBR,Spean Bridge,56.889839,-4.920321,Scotland,0
SPI,Spital,53.339869,-2.993903,North West,0
SPO,Spondon,52.912267,-1.410627,East Midlands,0
SPN,Spooner Row,52.535057,1.086088,East of England,0
SRI,Spring Road,52.44392,-1.83666,West Midlands,0
SPR,Springburn,55.881363,-4.230064,Scotland,0
SPF,Springfield,56.295116,-3.051808,Scotland,0
SQU,Squires Gate,53.776756,-3.049403,North West,0
SAA,St Albans Abbey,51.744675,-0.342422,East of England,0
SAS,St Annes-On-The-Sea,53.753383,-3.029662,North West,0
SAU,St Austell,50.338863,-4.789557,South West,0
SBS,St Bees,54.492465,-3.591263,North West,0
SBF,St Budeaux Ferry Road,50.401241,-4.186661,South West,0
SBV,St Budeaux Victoria Road,50.403008,-4.188144,South West,0
SCR,St Columb Road,50.399002,-4.94085,South West,0
SDN,St Denys,50.921997,-1.3882,South East,0
SER,St Erth,50.171074,-5.443694,South West,0
SGM,St Germans,50.394386,-4.308757,South West,0
SNH,St Helens Central,53.453117,-2.730328,North West,0
SHJ,St Helens Junction,53.433525,-2.699892,North West,0
SLQ,St Leonards Warrior Square,50.855942,0.560326,South East,0
SMT,St Margarets (Herts),51.787773,0.000837,East of England,0
SMY,St Mary Cray,51.394714,0.107269,London,0
STM,St Michaels,53.375649,-2.952704,North West,0
SNO,St Neots,52.231438,-0.247244,East of England,0
STA,Stafford,52.804466,-2.123088,West Midlands,0
SNS,Staines,51.432873,-0.502415,South East,0
SLL,Stallingborough,53.587158,-0.182581,Yorkshire and The Humber,0
SYB,Stalybridge,53.484471,-2.06264,North West,0
SMH,Stamford Hill,51.575035,-0.076343,London,0
SFO,Stanford-Le-Hope,51.513634,0.422634,East of England,0
SNT,Stanlow & Thornton,53.277996,-2.841318,North West,0
SSD,Stansted Airport,51.888979,0.26162,East of England,0
SST,Stansted Mountfitchet,51.901495,0.199642,East of England,0
SPU,Staplehurst,51.171856,0.55061,South East,0
SRD,Stapleton Road,51.468052,-2.565747,South West,0
SBE,Starbeck,53.999004,-1.501116,Yorkshire and The Humber,0
SCS,Starcross,50.627731,-3.447757,South West,0
SCF,Stechford,52.485241,-1.810006,West Midlands,0
SON,Steeton & Silsden,53.900257,-1.946704,Yorkshire and The Humber,0
SPS,Stepps,55.890026,-4.147389,Scotland,0
SVG,Stevenage,51.899025,-0.206437,East of England,0
STV,Stevenston,55.633533,-4.749829,Scotland,0
SWR,Stewartby,52.06974,-0.520596,East of England,0
STT,Stewarton,55.681633,-4.519346,Scotland,0
STG,Stirling,56.119114,-3.934915,Scotland,1
SPT,Stockport,53.4049,-2.162419,North West,0
SKS,Stocksfield,54.94635,-1.917227,North East,0
SSM,Stocksmoor,53.594349,-1.723478,Yorkshire and The Humber,0
STK,Stockton,54.56971,-1.31784,North East,0
SKM,Stoke Mandeville,51.78772,-0.783575,South East,0
SKW,Stoke Newington,51.565079,-0.07244,London,0
SOT,Stoke-On-Trent,53.008012,-2.181119,West Midlands,0
SCG,Stone Crossing,51.452053,0.263924,South East,0
SBP,Stonebridge Park,51.543961,-0.275233,London,0
SOG,Stonegate,51.020184,0.364016,South East,0
STN,Stonehaven,56.966888,-2.225286,Scotland,0
SHU,Stonehouse,51.746029,-2.279516,South West,0
SNL,Stoneleigh,51.363701,-0.247546,South East,0
SBJ,Stourbridge Junction,52.447563,-2.133857,West Midlands,0
SBT,Stourbridge Town,52.456539,-2.142716,West Midlands,0
SOI,Stow,55.691398,-2.857782,Scotland,0
SMK,Stowmarket,52.190105,1.000662,East of England,0
STR,Stranraer,54.909626,-5.024806,Scotland,0
SFA,Stratford International,51.544306,-0.009882,London,0
SRA,Stratford (London),51.542358,-0.004175,London,0
STY,Stratford-upon-Avon Parkway,52.20642,-1.7307,West Midlands,0
STC,Strathcarron,57.422585,-5.429166,Scotland,0
